"SID","lat","lon","elev","name"
1001,70.9331,-8.6667,9.4,"JAN MAYEN"
1002,80.0592,16.25,8,"VERLEGENHUKEN"
1003,77,15.5,11.07,"HORNSUND"
1004,78.9167,11.9331,8,"NY-ALESUND II"
1006,78.2506,22.8225,14,"EDGEOYA"
1007,78.9228,11.9331,7.7,"NY-ALESUND"
1008,78.25,15.4667,26.82,"SVALBARD AP"
1009,80.6528,25.0078,5,"KARL XII OYA"
1010,69.3072,16.1308,13.1,"ANDOYA"
1011,80.0722,31.5,10,"KVITOYA"
1014,69.2344,17.9031,9,"SENJA-LAUKHELLA"
1015,69.6006,17.8372,14,"HEKKINGEN LH"
1016,78.9275,28.8919,20,"KONGSOYA"
1017,77.6886,14.7839,6,"AKSELOYA"
1018,69.2413,16.003,436,""
1019,77.5289,20.8297,20,"SVARTTANGEN"
1020,76.4775,16.5486,10,"SORKAPPOYA"
1023,69.0589,18.54,76.8,"BARDUFOSS"
1025,69.6767,18.9131,8.8,"TROMSO/LANGNES"
1026,69.6536,18.9367,114.5,"TROMSO"
1027,69.6522,18.9056,20,"TROMSO-HOLT"
1028,74.5167,19.0047,18,"BJORNOYA"
1033,70.2456,19.5003,24.1,"TORSVAG LH"
1035,69.5589,20.0939,710,"LYNGEN GJERDVASSBU"
1036,69.37,20.27,5,"---"
1037,69.3861,20.2594,4.71,"SKIBOTN 2"
1042,70.607,22.4428,438,""
1043,70.4103,22.8194,10,"ROGNSUNDET"
1044,70.4861,22.1461,6,"HASVIK AP"
1045,69.8336,21.8842,6,"NORDSTRAUM I KVAENANGEN"
1046,69.7886,20.9553,4.87,"SORKJOSEN"
1047,68.9967,23.0333,307.2,"KAUTOKEINO"
1049,69.9775,23.3581,2.7,"ALTA LUFTHAVN"
1052,70.6806,23.6769,79.24,"HAMMERFEST AP"
1055,71.0933,23.9817,14.22,"FRUHOLMEN LH"
1057,69.3669,24.4331,286,"CUOVDDATMOHKKI"
1058,69.5794,23.5344,381.06,"SUOLOVUOPMI LULIT"
1059,70.06,24.9897,7.62,"BANAK"
1062,76.5094,25.0131,10.2,"HOPEN"
1065,69.4633,25.5022,130.77,"KARASJOK"
1068,71.0106,25.9781,13.41,"HONNINGSVAG AP"
1074,71.0331,27.8297,13,"MEHAMN AP"
1075,70.3967,28.1928,11.2,"RUSTEFJELBMA"
1076,70.2122,28.1586,32,""
1078,71.0839,28.2178,8,"SLETTNES LH"
1082,69.1469,29.2439,56,""
1083,70.8708,29.0347,13,"BERLEVAG AP"
1084,69.4553,30.0411,27,"PASVIK"
1086,70.6028,29.7,152,"BATSFJORD AP"
1088,70.0653,29.8353,39,"VADSO AP"
1089,69.7253,29.8975,86.25,"KIRKENES"
1092,70.7003,30.0678,9,"MAKKAUR LH"
1098,70.3706,31.0989,14.6,"VARDO"
1099,70.3544,31.0439,12,"VARDO AP"
1102,65.2022,10.9964,15.6,"SKLINNA LH"
1105,68.3678,15.9428,8,"ROTVAER"
1106,67.5167,12.1,2,"ROEST III"
1107,67.5267,12.1036,2.13,"ROST AP"
1108,65.7019,11.8569,9.1,"VEGA-VALLSJO"
1112,65.4567,12.2181,9,"BRONNOYSUND AP"
1113,66.8,13.9833,39,"GLOMFJORD"
1114,66.9033,13.6458,8.48,"REIPA"
1115,66.7628,12.4858,16.93,"MYKEN"
1116,65.9606,12.4714,17,"SANDNESSJOEN AP"
1117,65.8269,12.4314,21,"TJOTTA"
1121,66.3706,12.6106,10,"SOLVAER III"
1122,65.7842,13.2178,72.23,"MOSJOEN AP"
1124,64.1586,12.4725,195,"KJOBLI I SNASA"
1132,65.1661,13.3667,319.26,"MAJAVATN V"
1133,65.6214,13.2892,50,"LAKSFORS"
1134,65.1833,13.4167,339,"MAJAVATN III"
1135,66.1317,13.5867,123.84,"SELJELIA"
1139,67.6528,12.7228,4,"VAEROY HELIPORT"
1141,68.15,13.6167,26,"LEKNES"
1143,68.0469,16.0836,19,"DRAG-AJLUOKTA"
1144,67.4047,13.8956,24,"HELLIGVAER II"
1146,66.2347,13.8967,5,"SKAMDAL"
1147,65.8264,14.1844,406,"VARNTRESK"
1148,66.3961,14.5306,110,"STORFORSHEI"
1149,66.3333,14.1,42,"RANA-BASMOEN"
1150,66.4992,14.9539,251,"HJARTASEN"
1151,66.3644,14.3014,70,"MO I RANA AP"
1152,67.2669,14.3586,12.8,"BODO VI"
1153,67.2853,14.4514,33,"BODO-VAGONES"
1156,68.6067,14.4331,7.55,"BO I VESTERALEN"
1158,67.1656,15.4856,7.55,"SETSA"
1160,68.1503,14.6506,11,"SKROVA LH"
1161,68.2453,14.6694,9,"SVOLVAER AP"
1162,68.58,15.0294,3,"STOKMARKNES AP"
1167,68.7003,15.4167,3.3,"SORTLAND"
1169,66.8481,15.3144,81,"SALTDAL"
1180,68.8025,16.5372,46.25,"HARSTAD"
1183,68.4911,16.6833,26,"EVENES AP"
1192,68.4319,17.6622,200,"STRAUMSNES"
1193,68.4397,17.3886,31,"NARVIK AP"
1198,68.7817,19.7017,203.86,"DIVIDALEN II"
1199,68.7553,23.5386,383.72,"SIHCCAJAVRI"
1203,62.0339,4.9858,39.8,"KRAKENES"
1205,62.3292,5.2678,37.17,"SVINOY LH"
1207,62.1028,5.5817,41,"FISKABYGD"
1209,62.1811,6.0806,74,"ORSTA-VOLDA AP"
1210,62.5617,6.115,21.03,"ALESUND/VIGRA"
1212,62.8594,6.5394,14.5,"ONA II"
1214,62.6511,6.755,43,"REKDAL"
1217,62.7444,7.2617,3,"MOLDE AP"
1218,62.2303,7.4217,17.4,"TAFJORD"
1220,62.4556,7.7703,1294,"MANNEN"
1221,63.0556,9.0722,450,"TAGDALEN"
1223,63.1094,7.8158,62,"KRISTIANSUND AP"
1224,62.4703,6.2106,15,"AALESUND"
1225,63.5278,7.9467,5,"VEIHOLMEN"
1227,62.8333,8.3,69,"TINGVOLL-HANEM"
1228,63.8467,8.4667,5.85,"SULA"
1229,62.8347,8.5213,5,""
1230,62.2581,8.1997,579,"BJORLI"
1232,62.445,7.8481,64.6,"MARSTEIN"
1233,62.0719,9.1161,638,"DOMBAAS"
1234,63.3153,9.8494,4,"ORKDAL-THAMSHAMN"
1237,63.5192,9.1125,13,""
1238,62.1131,9.2861,974,"FOKSTUGU"
1239,62.2206,9.5422,1012,"HJERKINN II"
1240,64.1728,9.4061,15.92,"HALTEN LH"
1241,63.7003,9.6011,8.53,"ORLAND III"
1242,63.9658,10.2156,20,"AFJORD II"
1245,62.6042,9.6667,598.8,"OPPDAL-SETER"
1250,62.1281,9.9947,694,"FOLLDAL-FREDHEIM"
1252,62.82,10.02,475,"BERKAK"
1253,62.9533,10.1786,299,"SOKNEDAL"
1254,62.9761,10.5606,127,"KOTSOY"
1257,63.4106,10.4539,131.5,"TRONDHEIM/VOLL"
1259,64.4014,10.455,18.42,"BUHOLMRASA LH"
1262,64.7975,10.5492,33,"NORDOYAN LH"
1265,62.2694,10.7319,482.3,"TYNSET-HANSMOEN"
1270,63.4881,10.8794,40,"KVITHAMAR"
1271,63.4592,10.935,17.06,"TRONDHEIM/VERNES"
1272,63.5656,10.6939,70,"FROSTA"
1273,63.2247,11.0075,161.56,"SELBU"
1274,63.2,11.12,242,"---"
1277,64.0222,11.4506,6,"STEINKJER"
1278,63.7822,11.6742,83.3,"VERDAL-REPPE"
1280,64.1333,11.3333,118,"NAMDALSEID-VENGSTAD"
1281,64.7419,12.8458,140,"NAMSSKOGAN"
1282,64.835,11.1408,4,"RORVIK AP"
1287,62.6797,11.8167,760,"SOLENDET"
1288,62.5772,11.3517,626.05,"ROROS AP"
1290,64.4708,11.5706,2,"NAMSOS AP"
1291,64.5308,12.3836,95,"GARTLAND"
1292,63.42,11.75,240,"---"
1293,63.4114,11.7275,169.97,"MERAKER-EGGE"
1295,64.55,12.15,27,"HOYLANDET"
1298,64.4456,13.7178,433,"NORDLI-HOLAND"
1300,61.2042,2.2686,80,"GULLFAKS C"
1304,61.5717,4.6817,25.3,"YTTEROYANE LH"
1307,60.78,4.7197,18.96,"FEDJE"
1308,61.2928,5.0444,7,"FURUNESET"
1310,61.5831,5.0278,9,"FLORO AP"
1311,60.2892,5.2264,50.29,"BERGEN/FLESLAND"
1314,60.5206,5.7247,10,""
1315,60.6469,6.1106,17,"EVANGER"
1317,60.3831,5.3336,12,"BERGEN/FLORIDA"
1318,61.7878,6.1856,51,"SANDANE"
1319,61.0269,5.3806,38,"TAKLE"
1320,61.8294,6.1044,60,"SANDANE AP"
1321,61.9156,6.5583,208.62,"STRYN"
1322,61.4647,5.9331,64,"FORDE-TEFRE"
1323,61.3911,5.76,321,"FORDE AP"
1326,60.8561,5.9731,125,"MODALEN III"
1327,60.3886,5.9639,455,"KVAMSKOGEN-JONSHOGDI"
1329,60.3578,6.2747,49.62,"KVAMSOY"
1332,61.4231,6.7642,3,"FJAERLAND-BREMUSEET"
1337,60.625,6.4261,55.26,"VOSSEVANGEN"
1338,61.1711,6.6469,54,"VANGSNES"
1340,60.4083,7.2797,735.9,"FET I EIDFJORD"
1341,60.47,6.87,166,"---"
1342,60.3186,6.6539,12,"ULLENSVANG"
1344,60.7019,6.9372,695,"MJOLFJELL"
1345,60.7192,7.2086,960,""
1346,60.6569,7.2769,1162,"MIDTSTOVA"
1347,61.1581,7.1414,497,"SOGNDAL AP"
1350,60.5925,7.5303,1209.75,"FINSEVATN"
1352,60.1839,7.4814,1250,"SANDHAUG"
1355,61.1031,7.5025,4.13,"LAERDAL IV"
1357,60.8706,8.5175,804.2,""
1358,60.8547,8.5931,604,"HEMSEDAL II"
1359,60.53,8.1947,773.51,"GEILO-OLDEBRATEN"
1360,61.8964,7.8956,664,"BRATA-SLETTOM"
1361,62.0161,7.6636,871.9,"GROTLI III"
1362,61.6778,8.3728,1894,"JUVVASSHOE"
1363,60.4158,8.501,798,""
1364,61.1778,8.1125,955.1,"FILEFJELL"
1365,61.2506,8.9228,965,"BEITOSTOLEN II"
1366,61.5644,7.9978,1413,"SOGNEFJELL"
1367,60.9867,9.2367,365.4,"FAGERNES"
1368,61.0128,9.2928,822,"FAGERNES AP"
1369,60.9181,9.29,639,"ABJORSBRATEN"
1370,61.5308,9.4022,928,"SKABU"
1371,61.1219,9.0631,521,"LOKEN I VOLBU"
1372,60.57,9.13,167,"---"
1373,60.5669,9.1336,167.34,"NESBYEN-TODOKK"
1374,60.9367,10.0381,542,"VEST-TORPA II"
1375,61.4647,10.1275,1030,"KVITFJELL"
1376,60.3828,9.605,142,"GULSVIK II"
1378,61.0925,10.4772,242.4,"LILLEHAMMER-SAETHERENGEN"
1380,61.6511,10.1086,930,"VENABU"
1381,60.7003,10.8683,264,"APELSVOLL"
1382,60.7733,10.8056,128,"KISE"
1383,61.4253,11.0803,257,"EVENSTAD-DIH"
1384,60.2064,11.08,207.56,"OSLO/GARDERMOEN"
1385,60.8178,11.0694,222.27,"HAMAR"
1386,60.8008,11.0975,132,"HAMAR II"
1387,61.455,10.1856,200,"FAVANG"
1389,61.1592,11.4425,238.22,"RENA-HAUGEDALEN"
1392,60.6139,12.0122,184.6,"FLISA II"
1393,61.8897,12.0333,673.5,"DREVSJO"
1397,61.2942,12.2717,361.36,"TRYSIL VEGSTASJON"
1400,56.5,3.2,48.8,"EKOFISK"
1401,59.9833,2.25,48,"FRIGG"
1403,59.3064,4.8722,56.3,"UTSIRA LH"
1406,59.9081,5.0681,16.3,"SLATTEROY LH"
1407,59.7933,5.3407,49,""
1408,59.3497,5.1978,24,"HAUGESUND AP"
1411,59.0703,5.4119,22.42,"KVITSOY - NORDBO"
1412,58.6592,5.5553,25.6,"OBRESTAD"
1413,58.7606,5.6506,87,"SAERHEIM"
1414,59.4381,5.0781,25,"ROVER"
1415,58.8842,5.6369,8.83,"STAVANGER/SOLA"
1416,58.9569,5.73,72,"STAVANGER VAALAND"
1417,59.4839,5.7506,64.7,"NEDRE VATS"
1418,60.0167,5.2058,32,""
1419,59.0508,6.1211,300,"LIARVATN"
1422,59.1597,6.0364,30,"FISTER_SIGMUNDSTAD"
1424,59.6486,6.3631,2.71,"SAUDA"
1425,58.5006,6.5006,66.07,"EIK HOVE"
1426,58.4353,5.8717,49,"EIGEROYA"
1427,58.1097,6.5681,13.5,"LISTA LH"
1428,58.1,6.6333,10,"LISTA FLYPLASS"
1430,58.0244,7.4517,10,"MANDAL III"
1431,58.9228,6.9094,555.4,"SIRDAL-SINNES"
1433,59.8336,6.9914,1081.01,"MIDTLAEGER"
1434,59.7661,7.3653,822,"VAAGSLI"
1435,59.8118,7.2143,991,""
1436,57.9828,7.0478,13,"LINDESNES LH"
1439,58.2669,7.3806,263,"KONSMO-HOYLAND"
1440,59.3428,6.8733,1050,"BLASJO"
1441,59.595,7.41,836.16,"HOVDEN-LUNDANE"
1442,58.6669,7.8008,211.3,"BYGLANDSFJORD"
1444,59.2017,7.5328,302,"VALLE"
1446,59.5667,8.2,714,"OYFJELL-TROVATN"
1447,59.4969,8.1992,561.85,"HOYDALSMO II"
1448,58.0731,8.0531,8,"OKSOY LH"
1449,58.87,9.0264,32,"GJERSTAD"
1450,59.8394,8.1792,977,"MOSSTRAND II"
1452,58.2,8.0767,17.37,"KRISTIANSAND/KJEVIK"
1453,58.6006,8.4161,162,"HYNNEKLEIV"
1455,59.0269,8.5206,254.88,"TVEITSUND"
1459,58.6581,8.6311,142,"NELAUG"
1460,59.4353,10.5781,14,""
1462,59.0872,9.66,90,""
1463,59.6606,10.7819,89,"AS"
1464,58.34,8.5225,6,"LANDVIK"
1465,58.3986,8.7892,15,"TORUNGEN LH"
1466,59.9708,11.0383,109,"KJELLER AP"
1467,58.6333,9.1503,4.54,"LYNGOR LH"
1468,60.1903,12.0067,148,"KONGSVINGER"
1469,60.1664,10.2478,141.7,"HONEFOSS-HOYBY"
1470,59.3831,9.2011,93,"GVARV"
1471,60.0433,9.1467,275,"VEGGLI II"
1473,59.6244,9.6375,172.7,"KONGSBERG BRANNSTASJON"
1474,59.9,9.5333,294,"LYNGDAL I NUMEDAL"
1476,58.8569,9.5761,5,"JOMFRULAND LH"
1477,59.7128,10.1458,193,"KONNERUD"
1478,58.9686,10.1478,15,"SVENNER LH"
1479,59.5667,9.2105,20,""
1480,59.7536,10.1236,8,"DRAMMEN BERSKOG"
1481,59.2297,10.3481,26,"MELSOM"
1482,59.0269,10.5242,7.7,"FERDER LH"
1483,59.1844,10.2553,87.17,"TORP"
1484,59.9119,11.58,127.76,"AURSKOG"
1485,59.6194,10.215,60,"SANDE-GALLEBERG"
1486,59.8558,10.4344,163,"ASKER"
1487,59.9228,10.8342,90,"ALNA"
1488,60.1172,10.8289,170,"HAKADAL"
1489,60.0514,10.6878,360,"BJORNHOLT"
1490,59.9844,10.6692,514,"TRYVANNSHOGDA"
1492,59.9422,10.72,96.6,"OSLO-BLINDERN"
1493,59.2856,11.1147,57,"SARPSBORG"
1494,59.3828,10.7881,53.03,"RYGGE"
1495,59.1511,10.8286,10,"STROMTANGEN LH"
1496,59.8167,11.4833,154,"HOLAND-FOSSER"
1498,59.97,12.22,153,"MAGNOR"
2013,67.7269,17.4711,542.7,"RITSEM"
2019,68.4203,18.1681,516.2,"KATTERJAKK A"
2020,68.4211,18.1714,517.3,"KATTERJAKK"
2024,67.4964,18.2944,425.45,"STORA SJOFALLET"
2028,67.9114,18.6072,1144,"TARFALA, SOL"
2029,67.9114,18.6072,1146.1,"TARFALA"
2031,68.0747,19.8394,493.51,"RENSJON"
2036,67.8542,19.0256,467.96,"NIKKALUOKTA"
2038,67.2564,20.2747,453.19,"LATNIVAARA"
2044,67.8228,20.34,446.7,"KIRUNA"
2045,67.8406,20.4106,424,"KIRUNA, SOL"
2049,67.1422,20.6458,359.83,"GALLIVARE"
2054,68.0439,21.755,360,"NEDRE SOPPERO"
2055,68.6778,21.5275,402.29,"NAIMAKKA"
2064,67.3378,22.2336,240.44,"SAITTAROVA"
2071,58.5822,16.1486,58,"NORRKOPING, SOL"
2072,67.7317,22.8269,313.24,"PARKALOMPOLO"
2080,68.4422,22.4503,331,"KARESUANDO"
2081,68.4419,22.4436,331.9,"KARESUANDO A"
2091,57.6728,18.3447,49,"VISBY, SOL"
2095,67.2036,23.39,165.9,"PAJALA"
2096,67.2167,23.4,168,"PAJALA"
2101,65.8061,15.0828,463,"HEMAVAN"
2102,65.0944,14.5086,1036.29,"STEKENJOKK"
2103,65.78,15.0644,793.03,"HEMAVAN-GIEREVARTO"
2104,65.8,15.1,473,"HEMAVAN"
2110,65.3281,15.0689,577.3,"GIELAS"
2119,66.8872,18.0197,316.6,"KVIKKJOKK ARRENJARKA A"
2120,66.8878,18.0178,315,"KVIKKJOKK-ARRENJARKA"
2121,66.6817,16.1089,615.4,"MIERKENIS"
2123,66.3242,17.0944,552,"JAKKVIK"
2124,66.0514,17.8397,432.21,"ARJEPLOG"
2126,65.0094,17.6994,277.4,"GUNNARN A"
2128,65.0106,17.6803,283,"GUNNARN"
2130,66.4861,16.4172,481,"ROPARUDDEN"
2135,65.5594,17.8603,393.06,"BURESJON"
2141,66.3,19.2,582.6,"TJAKAAPE"
2146,66.505,19.675,324,"VAJMAT"
2147,65.1522,18.5975,362.98,"MALA-BRANNAN"
2149,65.5953,19.2683,383.59,"ARVIDSJAUR"
2151,66.4833,20.1667,275,"JOKKMOKK FPL"
2154,65.8678,20.1542,182,"VIDSEL"
2159,65.12,20.77,195,"FALLFORS"
2161,66.7531,20.9283,327.45,"NATTAVAARA"
2170,65.7528,21.765,12,"SAVAST"
2171,65.8083,21.6344,26.8,"BODEN"
2173,65.6703,21.0664,43.22,"ALVSBYN"
2174,66.2803,21.1331,186.11,"LAKATRASK"
2176,65.0353,21.5656,4.03,"PITE-RONNSKAR"
2181,66.2631,22.8475,61.99,"OVERKALIX-SVARTBYN"
2183,65.5436,22.1114,32,"LULEA, SOL"
2184,66.8106,22.3364,228.71,"PAHAROVA"
2185,65.5433,22.1144,34,"LULEA-KALLAX"
2186,65.5444,22.1281,17,"LULEA-KALLAX"
2188,65.3131,22.3756,1.78,"RODKALLEN"
2191,65.6983,23.1008,3.61,"STORON"
2196,65.8333,24.1,6,"HAPARANDA"
2197,65.8236,24.1114,15.1,"HAPARANDA A"
2199,66.6236,23.4681,132.21,"YLINENJARVI"
2206,63.2833,12.1333,583,"STORLIEN-STORVALLEN"
2207,63.2828,12.1219,585,"STORLIEN-STORVALLEN A"
2209,63.0447,12.2778,1030.11,"SYLARNA"
2210,63.1864,12.1761,1090,"BLAHAMMAREN A"
2216,63.3056,13.8767,355,"MATTMAR"
2217,63.3736,13.1606,435,"ARE"
2219,64.5044,14.2208,555.1,"GADDEDE A"
2221,63.8397,13.5039,716.8,"KORSVATTNET"
2222,64.5,14.1667,330,"GADDEDE"
2226,63.1956,14.5003,359.2,"OSTERSUND FROSON"
2229,63.1969,14.4797,374,"OSTERSUND, SOL"
2230,64.2183,15.5564,309.95,"GUBBHOGEN"
2231,63.6772,14.6081,361.75,"FOLLINGE"
2233,64.9678,15.3792,545,"SAXNAS"
2236,63.7694,15.3311,376.53,"HALLHAXASEN"
2242,64.0886,16.2389,241.23,"HOTING"
2243,63.6839,16.95,220.6,"JUNSELE"
2244,63.6833,16.95,217,"JUNSELE"
2245,64.5811,16.8422,349.3,"VILHELMINA"
2247,63.1522,16.1733,184.11,"KRANGEDE"
2254,64.1661,17.3189,308.5,"ASELE"
2256,64.7344,17.4033,575,"RISTRASK"
2260,63.1253,18.2556,142.74,"VASTMARKUM"
2261,64.5494,18.7169,211.08,"LYCKSELE"
2263,64.0756,18.3656,327.41,"FREDRIKA"
2265,63.6514,18.5503,183.45,"HEMLING"
2267,63.4117,18.9797,100,"ORNSKOLDSVIK"
2269,63.1886,19.0206,11.39,"SKAGSUDDE"
2271,64.9264,19.3786,310.5,"NORSJO"
2282,64.5669,19.6986,258.03,"PETISTRASK"
2283,63.8111,20.2397,22,"UMEA, SOL"
2284,63.4361,19.6769,7.21,"JARNASKLUBB"
2286,63.8,20.2833,7.7,"UMEA"
2287,63.8069,20.8644,7.9,"HOLMON"
2288,63.6,20.75,6,"HOLMOGADD"
2292,64.4358,21.28,105,"HOKMARKSBERGET"
2293,64.6247,21.0769,43.95,"SKELLEFTEA"
2297,64.4814,21.5792,36.77,"BJUROKLUBB"
2302,61.84,12.2872,664.7,"STORBO/IDRE"
2303,62.7292,12.7264,995,"FLATRUET"
2307,61.8894,12.8544,868.66,"IDRE FJALL"
2308,62.4503,12.6703,724.3,"TANNAS"
2311,61.1581,13.1139,744,"HOGFJALLSHOTELLET"
2316,61.6912,13.1865,425,""
2317,62.0944,13.6117,566.34,"DRAVAGEN"
2319,62.7558,13.8458,466.94,"BORTNAN"
2321,61.2544,14.0386,252.96,"ALVDALEN"
2324,62.0192,14.1906,363,"SVEG"
2325,62.4961,14.1572,802.88,"KLOVSJOHOJDEN"
2327,62.0461,14.4069,359.3,"SVEG A"
2329,61.6606,14.995,455.13,"HAMRA"
2331,62.7514,15.0878,343.19,"HUNGE"
2337,62.2631,15.6708,320,"NORRHOG"
2338,61.3614,15.7178,184.99,"EDSBYN"
2343,62.4944,16.2775,100.21,"TORPSHAMMAR"
2347,61.8272,16.5419,71.92,"DELSBO"
2349,62.7628,16.7392,205,"SILLRE"
2354,62.4306,17.3447,80,"RASTA"
2355,61.7033,17.5253,10.08,"KUGGOREN"
2365,62.5317,17.4361,3.9,"SUNDSVALL HARNOSAND"
2366,62.5228,17.4494,8.5,"SUNDSVALL HARNOSAND"
2368,62.2208,17.7428,17.66,"BRAMON"
2378,61.2614,17.0983,27,"SODERHAMN FLYGPLATS"
2382,62.6431,18.0931,17.82,"LUNGO"
2403,58.6994,13.1111,53.02,"NAVEN"
2407,60.6764,13.7072,304.5,"MALUNG A"
2408,59.2219,12.0781,171.24,"BLOMSKOG"
2410,60.6814,13.6997,308,"MALUNG"
2411,59.6747,12.6381,67.09,"ARVIKA"
2413,60.7569,12.7722,205,"BRATTMON"
2417,58.75,13.15,50,"PALGRUNDEN"
2418,59.4447,13.3375,99.5,"KARLSTAD FLYGPLATS"
2419,59.3592,13.4719,46,"KARLSTAD, SOL"
2423,59.8644,13.1194,109.1,"SUNNE"
2426,60.1539,13.8019,188.46,"GUSTAVSFORS"
2429,59.6619,14.1831,133.39,"DAGLOSEN"
2431,59.8703,15.2522,284.3,"KLOTEN"
2432,59.2289,15.0456,53,"OREBRO"
2435,60.4292,15.5008,149.9,"BORLANGE"
2440,60.9622,16.4311,161.82,"AMOT"
2441,60.9608,14.5072,197.02,"MORA"
2443,59.65,17.1167,26,"ENKOPING"
2449,59.3825,16.4522,12.4,"ESKILSTUNA"
2450,60.7306,17.5614,3.93,"EGGEGRUND"
2452,59.2994,14.8986,218.85,"KILSBERGEN-SUTTARBODA"
2453,60.7169,17.1642,16.19,"GAVLE"
2456,60.2358,17.9044,34.57,"FILM"
2458,59.9008,17.5958,21,"UPPSALA"
2460,59.6264,17.9508,27.6,"STOCKHOLM-ARLANDA"
2462,59.8667,17.6333,13,"UPPSALA UNIVERSITY"
2464,59.3653,17.8978,13.6,"STOCKHOLM/BROMMA"
2468,60.3822,15.1406,492.58,"STORA SPANSBERGET"
2469,59.1789,17.9128,44.68,"TULLINGE"
2472,60.1228,15.1228,240,"SKEPPMORA"
2476,59.0564,16.3978,33,"FLODA"
2481,59.9097,16.6878,58.11,"SALA"
2482,60.2689,16.9772,57.13,"KERSTINBO"
2483,59.3533,18.0633,30,"STOCKHOLM, SOL"
2484,59.35,18.0667,44,"STOCKHOLM/OBSERVATORIET"
2485,59.35,18.0667,52,"STOCKHOLM"
2486,59.3583,17.5244,6.31,"ADELSO"
2487,59.2997,18.7047,17.58,"STAVSNAS"
2488,60.5261,18.3767,9.49,"ORSKAR"
2489,59.0678,18.1089,6,"BERGA"
2490,59.8322,18.6347,16.22,"SVANBERGA"
2492,59.4422,19.5019,10,"SVENSKA HOGARNA, SOL"
2493,59.7536,19.4089,14.83,"SODERARM"
2496,59.4444,19.5058,12,"SVENSKA HOGARNA"
2498,59.4422,19.5022,13.6,"SVENSKA HOGARNA A"
2499,59.15,19.13,25,"ALMAGRUNDET"
2500,58.8919,11.0039,34.6,"NORDKOSTER"
2501,58.5761,11.0661,23.6,"VADEROARNA"
2503,58.8919,11.0039,33,"NORDKOSTER, SOL"
2505,58.0942,11.3336,15.74,"MASESKAR"
2507,58.6608,11.4178,80,"HUD"
2512,57.7833,11.8833,16,"GOTEBORG/SAVE"
2513,57.7156,11.9925,3.4,"GOTEBORG"
2515,58.1997,12.1542,20,"TORPABRON"
2516,57.6322,11.6047,19,"VINGA"
2517,57.6,11.63,26,"TRUBADUREN"
2518,57.3039,11.9064,1.7,"NIDINGEN"
2520,58.4289,12.7139,54,"SATENAS"
2521,58.6003,12.4131,55,"BERGARUD"
2526,57.6761,12.2919,155.2,"GOTEBORG-LANDVETTER"
2527,57.6572,12.2911,164,"GOTEBORG/LANDVETTER"
2531,57.6878,11.9794,94,"GOTEBORG, SOL"
2536,57.785,13.1669,298.75,"RANGEDALA"
2539,57.1136,12.7758,122.28,"ULLARED"
2540,58.6069,12.1975,173.71,"KROPPEFJALL-GRANAN"
2542,58.3222,13.0406,71.33,"HALLUM"
2544,58.5136,14.5072,93.5,"KARLSBORG"
2545,58.5667,14.5667,93,"AXSTAL"
2546,58.8772,14.3906,212.07,"GARDSJO"
2548,58.0953,14.4086,94.83,"VISINGSO"
2549,57.4983,14.4675,356.13,"TOMTABACKEN"
2550,57.7514,14.0692,223.5,"JONKOPING/AXAMO"
2552,58.0719,15.2361,197.16,"MALEXANDER"
2553,58.0794,13.785,220,"KYMBO"
2554,58.7161,15.0303,225.08,"KETTSTAKA"
2556,57.2925,14.14,169,"HAGSHULT"
2557,57.8864,15.8656,91.25,"HORN"
2558,58.6894,16.3106,154.8,"KOLMARDEN-STROMSFORS"
2559,57.7072,16.4586,30.53,"GLADHAMMAR"
2561,58.6403,15.4336,73.7,"KVARN"
2562,58.3981,15.5258,93,"LINKOPING/MALMSLATT"
2563,58.2506,17.0106,17.85,"HARSTENA"
2565,57.3844,15.8011,97.7,"MALILLA"
2566,57.4,15.8167,98,"MALILLA"
2567,58.7436,17.8719,19.89,"LANDSORT"
2573,57.3672,17.0986,2,"ORLANDS NORRA UDDE, SOL"
2574,58.5828,16.1486,34.7,"NORRKOPING"
2575,57.3672,17.0986,3.59,"OLANDS NORRA UDDE"
2583,58.6,17.47,25,"GUSTAF DAHLEN"
2584,58.4,19.2,12,"GOTSKA SANDON"
2587,57.9169,18.9569,12.92,"FAROSUND-AR"
2589,58.3944,19.1978,17.21,"GOTSKA SANDON"
2590,57.6667,18.35,47,"VISBY"
2591,57.65,18.35,47,"VISBY AEROLOGISKA STATION"
2595,57.5436,18.4253,35,"ROMA"
2598,57.4414,18.9844,5,"OSTERGARNSHOLM"
2602,56.4042,12.9436,140,"HALLANDSASEN"
2603,56.8625,12.6628,47,"BROEN"
2605,56.4497,12.5472,10.08,"HALLANDS VADERO"
2607,56.2978,12.8442,36.5,"ANGELHOLM-BARKAKRA"
2609,55.4742,13.6683,50,"RYNGE"
2611,56.0306,12.7653,44.27,"HELSINGBORG"
2615,55.3836,12.8167,3.5,"FALSTERBO A"
2616,55.3839,12.8194,5,"FALSTERBO"
2618,56.9494,13.0603,134.6,"TORPUP"
2620,56.9667,13.0667,87,"TORUP"
2622,56.8528,13.8822,148.47,"LJUNGBY"
2623,55.8633,13.6689,113.58,"HORBY"
2625,55.4889,14.3172,5.25,"SKILLINGE"
2628,56.0139,14.8494,60.4,"HANO"
2629,56.2744,13.9378,104,"HASTVEDA"
2632,55.9558,15.7078,2.49,"UTKLIPPAN"
2633,55.7139,13.2122,86,"LUND, SOL"
2635,55.5714,13.0736,20.81,"MALMO"
2636,55.5231,13.3789,73,"MALMO-STURUP"
2643,56.9269,14.7306,182,"VAXJO, SOL"
2644,56.1978,16.4036,3.05,"OLANDS SODRA UDDE"
2646,56.6669,16.4608,0,"OLANDSBRON LAG"
2648,56.8464,14.8325,200,"VAXJO"
2652,56.0239,14.1028,10,"KRISTIANSTAD"
2661,56.845,15.4722,231.5,"KOSTA (ORREFORS)"
2664,56.2669,15.2681,58,"RONNEBY-BREDAKRA"
2665,56.1094,15.6231,8,"KARLSKRONA, SOL"
2667,56.1431,15.5867,4.1,"KARLSKRONA-SODERSTJERNA"
2670,56.6833,16.3,4.2,"KALMAR"
2679,56.9211,18.1506,36.3,"HOBURG A"
2680,56.9222,18.155,39,"HOBURG"
2701,69.05,20.85,1009,"KILPISJARVI SAANA"
2702,69.1333,27.2667,156,""
2703,60.2,24.75,32,"ESPOO SEPANKYLA"
2704,61.1167,24.3333,87,"HATTULA LEPAA AWS"
2705,67.0167,27.2167,493,"PELKOSENNIEMI PYHATUNTURI"
2706,60.25,24.05,37,"LOHJA PORLA"
2708,62.1833,22.7997,161,""
2710,62.95,26.4,127,"VESANTO KK"
2711,63.1,21.6167,13,"VAASA KESKUSTA"
2713,61.2167,25.1328,134,""
2714,64.4833,26.4667,115,"VAALA PELSO"
2715,64.8333,28.2333,320,"HYRYNSALMI KYTOMAKI"
2716,65.9333,26.5167,154,"RANUA KK"
2717,68.1667,25.7667,272,"KITTILA POKKA"
2718,61.5225,28.185,98,""
2719,67.8167,27.75,243,"SODANKYLA LOKKA"
2720,67.6961,24.8581,191.4,""
2721,63.95,22.85,6,"KOKKOLA TANKAR"
2722,68.4167,27.4167,320,"INARI SAARISELKA"
2723,67.7833,24.85,200,"KITTILA LEVITUNTURI"
2724,60.1158,20.2975,16,""
2725,63.45,24.45,153,"HALSUA KANALA PUROLA"
2726,68.6,23.5833,377,"ENONTEKIO NAKKALA"
2727,61.2667,25.5167,76,"ASIKKALA PULKKILANHARJU"
2728,61.3,28.1833,88,"TAIPALSAARI KYLANIEMI"
2729,61.8833,25.3333,205,"JAMSA HIMOS"
2730,61.8333,28.85,157,"SAVONLINNA RUUNAVUORI"
2731,61.5333,28.2,127,"PUUMALA KK"
2732,62.8,27.9,87,"KUOPIO RITONIEMI"
2733,61.0333,28.5667,46,"JOUTSENO KONNUNSUO"
2734,61.45,29.4667,75,"PARIKKALA KOITSANLAHTI"
2735,62.3333,23.55,140,"VIRRAT AIJANNEVA"
2736,61.9,27.8833,112,"JUVA PARTAALA"
2737,63.8167,24.1667,85,"TOHOLAMPI LAITALA"
2738,63.7333,25.7167,153,"PYHAJARVI OL OJAKYLA"
2739,64.1167,28.35,163,"SOTKAMI KUOLANIEMI"
2740,65.8833,24.2667,9,"TORNIO LIAKKA"
2741,60.1833,19.9833,13,"JOMALA JOMALABY"
2743,59.8667,22.2,8,"DRAGSF JARD VANO"
2745,67.1667,29.1833,215,"SALLA NARUSKA"
2746,59.8167,22.9167,28,"HANKO TULLINIEMI"
2747,60.3833,22.1,6,"TURKU RAJAKARI"
2750,59.85,23.25,3,"HANKO TVARMINNE"
2751,61.6333,21.3833,5,"PORI TAHKOLUOTO"
2752,62.2,21.1667,22,"KRISTIINANKAUPUNGIN MAJAKKA"
2753,61.8333,22.4667,123,"KANKAANPAA NIINISALO AWS"
2754,61,24.5,85,"HAMEENLINNA KATINEN"
2755,64.0333,24.7167,76,"YLIVIESKA AIRPORT"
2756,60.3667,23.1167,3,"SALO KARKKA"
2757,59.8167,23.5833,23,"TAMMISAARI JUSSARO"
2758,60.4167,24.4,44,"VIHTI MAASOJA"
2759,60.3833,25.6167,24,"PORVOO HARABACKA"
2761,61.15,21.3,29,"RAUMA KYLMAPIHLAJA"
2762,61.2667,22.25,39,"KOKEMAKI PEIPOHJA HYRKOLA"
2763,61.4667,23.75,86,"TAMPERE HARMALA"
2764,67.9975,24.2094,270,""
2765,61.7,25.5167,83,"LUHANKA JUDINSALO"
2766,63.15,31.05,236.5,""
2767,61.05,25.05,125,"LAMMI BIOLOGINEN ASEMA"
2768,61.2167,26.05,100,"HEINOLA PLAANI"
2769,62.4167,22.1833,95,"KAUHAJOKI KUJA-KOKKO"
2770,61.85,24.2833,153,"JUUPAJOKI HYYTIALA"
2771,61.8833,26.1,146,"LEIVONMAKI SAVENAHO"
2772,62.0667,28.5667,80,"RANTASALMI RUKKASLUOTO"
2773,60.45,22.1833,7,"TURKU ARTUKAINEN"
2777,60.45,23.65,121,"KIKALA AIRPORT"
2778,61.8,29.3167,80,"PUNKAHARJU LAUKANSAARI"
2780,62.9333,21.1833,3,"KORSNAS BREDSKARET"
2781,62.9833,20.75,4,"STROMMINGSBADAN"
2783,61.1833,25.0333,129,"LAMMI ISO-EVO"
2787,63.0833,24.2667,170,"ALAJARVI MOKSY"
2788,63.15,27.3167,91,"MAANINKA HALOLA"
2789,63.3833,28.6667,166,"RAUTAVAARA YLA-LUOSTA"
2790,60.25,20.75,23,"KUMLINGE KK"
2791,63.2333,29.2333,116,"JUUKA NIEMELA"
2793,62.55,29.6667,80,"LIPERI TUISKAVANLUOTO"
2794,59.9167,24.35,2,"KIRKKONUMMI MAKILUOTO"
2795,60.1,24.9833,6,"HELSINKI HARMAJA"
2796,63.3167,30.05,98,"LIEKSA LAMPELA"
2797,64.15,25.4333,112,"HAAPAVESI"
2798,63.6667,28.8333,115,"VALTIMO KK"
2799,64.3,30.1667,198,"KUHMO KALLIOJOKI"
2800,64.6167,23.9,24,"NAHKIAINEN"
2801,69.05,20.7833,476,"KILPISJARVI"
2803,64.6833,25.1,50,"RUUKKI REVONLAHTI"
2804,65.5667,28.25,203,"TAIVALKOSKI PALOASEMA"
2805,69.75,27.0333,101,"KEVO"
2807,68.6167,27.4167,148,"IVALO"
2808,69.5833,28.85,132,"INARI SEVETTIJARVI"
2811,66.3667,29.3167,160,"KUUSAMO KIUTAKONGAS"
2812,66.5333,24.65,91,"YLITORNIO MELTOSJARVI"
2813,66.5833,26.0167,107,"ROVANIEMI APUKKA"
2814,66.7167,27.1667,209,"KEMIJARVI LENTOKENTTA"
2815,67.2833,28.1833,180,"SAVUKOSKI KK"
2816,68.0833,27.1833,249,"SODANKYLA VUOTSO"
2817,68.4333,27.45,432,"INARI SAARISELKA AWS"
2818,68.4833,28.3,255,"INARI RAJAJOOSEPPI"
2819,67.75,29.6167,370,"SALLA VARRIOTUNTURI"
2820,68.0667,24.0333,757,"KITTILA LAUKUKERO"
2821,67.9667,24.1167,566,"KITTILA SAMMALTUNTURI"
2823,67.9667,23.6833,253,"MUONIO"
2824,67.9833,24.25,350,"KITTILA KENTTAROVA"
2825,70.0833,27.95,35,"UTSJOKI NUORGAM"
2826,67.3667,26.6333,180,"SODANKYLA AWS"
2827,69.0667,27.5,124,"INARI VAYLA"
2828,60.3833,22.55,5,"PIIKKIO YLTOINEN"
2829,60.6,24.8,86,"HYVINKAA MUTILA"
2830,60.7,26.8167,33,"ANJALANKOSKI ANJALA"
2831,60.5333,27.6833,5,"VIROLAHTI KOIVUNIEMI"
2832,62.2333,30.35,90,"TOHMAJARVI KEMIE"
2833,62.9333,22.4833,32,"YLISTARO PELMA"
2834,63.8333,27.2167,208,"VIEREMA KAARAKKALA"
2835,68.85,28.3,125,"INARI NELLIM"
2836,67.3667,26.6333,179,"SODANKYLA"
2844,66.8,24,84,"PELLO"
2845,66.5667,25.8333,201,"ROVANIEMI"
2847,66.5,25.7167,82,"ROVANIEMI RAUTATIEASEMA"
2849,66.8333,28.6833,222,"SALLA KK"
2850,62.3222,27.9078,83,""
2851,64.9333,25.3833,12,""
2852,63.8444,23.1244,8.1,""
2857,68.9031,25.7364,285,""
2858,69.5825,28.8942,106,""
2859,64.6642,28.0567,341,""
2860,67.6522,24.9017,181,""
2862,65.7333,24.5167,7,"KEMI AJOS"
2863,65.4167,24.1333,19,"KEMI I"
2864,65.7836,24.5794,14.5,""
2866,65.4,26.9667,123,"PUDASJARVI"
2868,66.1667,29.15,488,"KUUSAMO RUKATUNTURI"
2869,65.9667,29.1833,263,"KUUSAMO"
2872,64.6667,24.4167,2,"RAAHE LAPALUOTO"
2873,65.0333,24.5667,8,"MARJANIEM"
2874,65.0333,24.7333,7,"HAILUOTO"
2875,64.9333,25.3667,15,"OULU"
2876,65,25.4,5,"OULU VIHREASAARI"
2880,65.8469,24.1736,9,""
2881,65.9769,26.3675,163,""
2882,68,24.24,340,""
2883,64.2167,27.755,161.5,""
2888,69.0483,27.7569,121.5,""
2889,64.9333,28.75,225,"SUOMUSSALMI PESIO"
2890,69.7569,27.0119,76,""
2897,64.2833,27.6833,136,"KAJAANI"
2901,63.7333,22.5833,13,"MASSKAR"
2903,63.7175,23.1386,25,""
2906,60.1714,22.7575,13,""
2907,64.3333,23.6,5,"ULKOKALLA"
2910,63.4333,21.0667,11,"VALASSAARET"
2911,63.05,21.7667,8,"VAASA AIRPORT"
2913,63.1,23.0333,44,"KAUHAVA"
2915,63.0833,25.8667,132,"VIITASAARI"
2917,63.0167,27.8,102,"KUOPIO"
2919,61.1981,28.4728,77,""
2920,63.75,22.5333,19,"PIETARSAARI KALLAN"
2921,62.8833,21.1,13,"MOIKIPAA"
2923,60.8167,23.5,105,"JOKIOINEN AWS"
2924,62.5333,24.0167,161,"AHTARI"
2926,61.4833,21.7833,9,""
2927,62.5106,24.8078,227,""
2928,62.6017,29.7239,81,""
2929,62.6667,29.6333,117,"JOENSUU"
2931,62.3336,21.1903,5,""
2935,62.4,25.6833,145,"JYVASKYLA"
2937,61.25,22.35,39,""
2939,62.7667,30.9667,157,"ILOMANTSI MEKRIJARVI"
2942,61.85,22.4667,136,"NIINISALO"
2943,61.5167,23.75,104,"TAMPERE SIILINKARI"
2944,61.5175,23.7536,112,"TAMPERE/PIRKKALA"
2945,61.85,24.8,145,"HALLI"
2946,61.8667,24.8167,144,""
2947,61.7333,27.3,138,"MIKKELI"
2948,61.95,28.95,95,"SAVONLINNA"
2949,60.6467,23.8058,143,""
2950,60.1167,21.7,6,"FAGERHOLM"
2952,61.4667,21.8,17,"PORI"
2955,62.9,27.6333,88.3,""
2956,60.8906,26.9414,99,""
2957,63.1,21.65,9,""
2958,61.05,28.2,106,"LAPPEENRANTA"
2959,61.05,28.2167,114.8,""
2961,61.1333,21.3667,10,"KUUSKAJASKARI"
2963,60.8167,23.5,103,"JOKIOINEN"
2964,60.7167,21.0167,4,"KUSTAVI ISOKARI"
2965,60.9667,25.6333,79,"LAHTI"
2966,60.9,26.9333,100,"UTTI"
2967,60.2833,27.1833,6,"KOTKA HAAPASAARI"
2970,60.1247,19.9033,6.1,""
2971,60.15,19.8667,10,"JOMALA"
2972,60.5167,22.2667,59,"TURKU"
2973,60.4,23.7667,86,"SUOMUSJARVI"
2974,60.3167,24.9667,56,"HELSINKI-VANTAA"
2975,60.25,25.05,28,"HELSINKI-MALMI"
2976,60.3667,26.9667,12,"RANKKI"
2978,60.1833,24.95,4,"HELSINKI KAISANIEMI"
2979,59.5,20.35,16,"BOGSKAR"
2980,59.9667,19.9667,10,"NYHAMN"
2981,59.7833,21.3833,7,"UTO"
2982,59.7667,22.95,11,"RUSSARO"
2983,60.5167,24.65,111,""
2984,59.9333,24.0167,12,"BAGASKAR"
2987,59.9833,25.6,23,"KALLBADAGRUND"
2988,60.1,25.0667,7,"ISOSAARI"
2989,59.95,24.9333,20.2,""
2991,60.2,25.6333,27,"PORVOO EMASALO"
2992,60.2667,26.45,5,"PERNAJA ORRENGRUND"
2993,60.3,19.1333,11,"MARKET"
2996,60.4,21.95,7,"RYMATTYLA RAULA"
2998,60.2031,24.9614,25.3,""
3002,60.7483,-0.8556,15,"BALTASOUND NO.2"
3005,60.1392,-1.1847,82,"LERWICK"
3006,60.45,-1.27,7,"SELLA NESS"
3007,60.58,-1.27,22,"MUCKLE HOLM"
3008,59.5264,-1.6275,57,"FAIR ISLE"
3010,59.0825,-4.4044,12,"SULE SKERRY"
3011,59.1167,-5.8167,103,"NORTH RONA ISLAND"
3013,60.15,-2.07,22,"FOULA"
3014,60.1106,-2.0647,22,"FOULA NO2"
3017,58.9536,-2.9014,26,"KIRKWALL"
3019,57.35,-7.3667,4,"SOUTH UIST"
3023,57.3575,-7.385,4,"SOUTH UIST RANGE"
3026,58.2136,-6.3189,15,"STORNOWAY AIRPORT"
3027,57.43,-6.77,83,"WATERSTEIN"
3031,57.725,-4.8956,269,"LOCH GLASCARNOCH"
3034,57.8589,-5.6328,11,"AULTBEA NO2"
3035,57.0333,-7.45,3,"BARRA"
3037,57.2569,-5.8053,18,"SKYE:LUSA"
3039,57.4181,-5.6886,773,"BEALACH NA BA NO2"
3040,56.77,-6.05,45,"KILMORY"
3041,56.8222,-4.9692,1130,"AONACH MOR"
3043,57.4,-5.48,59,"LOCHCARRON"
3044,58.2878,-4.4425,81,"ALTNAHARRA NO2"
3046,57.62,-4.82,88,"LOCHLUICHART"
3047,56.8669,-4.7081,249,"TULLOCH BRIDGE"
3055,58.87,-3.38,20,"RACKWICK"
3057,57.27,-4.48,21,"FOYERS"
3062,57.8189,-3.9667,4,"TAIN RANGE"
3063,57.2064,-3.8283,228,"AVIEMORE"
3065,57.1161,-3.6431,1237,"CAIRNGORM SUMMIT"
3066,57.6456,-3.5636,5,"KINLOSS"
3068,57.7114,-3.3233,7,"LOSSIEMOUTH"
3070,57.35,-3.35,213,"GLENLIVET"
3072,56.8792,-3.4208,928,"CAIRNWELL"
3075,58.4539,-3.09,36,"WICK AIRPORT"
3077,58.32,-3.28,85,"LYBSTER"
3080,57.0758,-2.8411,140,"ABOYNE NO2"
3088,56.8519,-2.2658,134,"INVERBERVIE NO.2"
3091,57.205,-2.2053,65,"DYCE"
3092,57.5025,-1.7742,15,"PETERHEAD HARBOUR"
3094,57.6978,-2.1228,4,"ROSEHEARTY"
3097,56.75,-3.53,248,"ENOCHDHU"
3100,56.5,-6.8828,9,"TIREE"
3105,55.6814,-6.2497,13.95,"ISLAY:PORT ELLEN"
3111,55.4408,-5.6969,10,"MACHRIHANISH"
3116,56.4,-5,40,"DALMALLY, STRONMILCHAN"
3120,55.7,-5.3,46,"ARRAN; LOCHRANZA"
3132,54.8592,-4.9353,11,"WEST FREUGH"
3134,55.9067,-4.5325,59,"GLASGOW BISHOPTON"
3136,55.5153,-4.5847,27,"PRESTWICK, GANNET"
3138,55.97,-4.8,5,"GREENOCK MRCC"
3139,55.6,-4.2167,223,"SAUGHALL"
3144,56.3264,-3.7286,35,"STRATHALLEN AIRFIELD"
3148,56.4233,-4.32,564,"GLEN OGLE"
3153,54.8033,-4.0081,113,"DUNDRENNAN"
3154,55.05,-3.65,16,"DUMFRIES/DRUNGANS"
3155,55.6272,-3.7361,245,"DRUMALBIN"
3158,55.7086,-2.3847,112,"CHARTERHALL"
3162,55.3119,-3.2069,236,"ESKDALEMUIR"
3164,55.6,-3.55,200,"BIGGAR"
3166,55.9283,-3.3444,57,"EDINBURGH GOGARBANK"
3171,56.3767,-2.8628,10,"LEUCHARS"
3174,56.3,-2.58,12,"FIFE NESS"
3176,55.37,-2.52,308,"CARTERHOUSE"
3204,54.0853,-4.6319,16,"RONALDSWAY"
3209,54.93,-3.15,7,"DRUMBURGH"
3210,54.5178,-3.6147,124,"ST BEES HEAD NO.2"
3212,54.6139,-3.1567,81,"KESWICK"
3214,54.125,-3.2581,15,"WALNEY ISLAND"
3215,54.77,-3.32,61,"ASPATRIA"
3220,54.9344,-2.9636,28,"CARLISLE"
3224,55.0503,-2.5544,285,"SPADEADAM NO2"
3225,54.5022,-2.685,252,"SHAP"
3226,54.5725,-2.4131,227,"WARCOP RANGE"
3227,54.6842,-2.4514,847,"GREAT DUN FELL NO2"
3230,55.285,-2.2794,211,"REDESDALE CAMP"
3235,54.82,-2.08,434,"BOLTSHOPE PARK"
3238,55.0197,-1.8817,142,"ALBEMARLE"
3240,55.4208,-1.6014,23,"BOULMER"
3246,54.98,-1.6,30,"NEWCASTLE WEATHER CENTRE"
3257,54.2969,-1.5331,33,"LEEMING"
3261,54.1347,-1.4144,33,"DISHFORTH AIRFIELD"
3265,54.2047,-1.39,25,"TOPCLIFFE"
3266,54.0453,-1.2511,14,"LINTON-ON-OUSE"
3275,54.5628,-0.8636,158,"LOFTUS"
3281,54.3586,-0.6717,262,"FYLINGDALES"
3292,54.0939,-0.1758,15,"BRIDLINGTON MRSC"
3301,53.26,-4.3761,60,"MONA"
3302,53.2525,-4.5364,10,"VALLEY"
3305,53.0942,-3.9414,216,"CAPEL CURIG NO3"
3313,53.2592,-3.5089,77,"RHYL NO2"
3314,53.22,-3.22,263,"MOEL-Y-CRIO"
3316,53.4972,-3.0578,9,"CROSBY"
3318,53.7744,-3.0394,10.4,"BLACKPOOL, SQUIRES GATE"
3321,53.1747,-2.9875,10,"HAWARDEN AIRPORT"
3330,53.1278,-1.9814,298,"LEEK THORNCLIFFE"
3334,53.35,-2.28,69,"MANCHESTER AIRPORT"
3339,53.97,-2.03,153,"SKIPTON NO2"
3344,53.8111,-1.8667,262,"BINGLEY NO.2"
3345,53.62,-1.67,259,"EMLEY MOOR"
3346,53.6117,-1.6669,267,"EMLEY MOOR NO 2"
3347,53.8,-1.55,47,"---"
3348,53.3392,-2.1544,88,"WOODFORD"
3354,53.0056,-1.2511,117,"NOTTINGHAM, WATNALL"
3355,53.8358,-1.1989,9,"CHURCH FENTON"
3373,53.3069,-0.5481,57,"SCAMPTON"
3377,53.1753,-0.5233,68.9,"WADDINGTON"
3379,53.0311,-0.5036,63,"CRANWELL"
3382,53.8747,-0.4417,7,"LECONFIELD"
3385,53.4747,0.1528,8,"DONNA NOOK NO.2"
3391,53.0939,-0.1728,6,"CONINGSBY"
3392,53.0883,0.2708,3,"WAINFLEET NO2"
3402,52.82,-4.63,253,"MYNYDD RHIW"
3405,52.7889,-4.7414,95,"ABERDARON"
3407,52.8,-4.12,9,"LLANBEDR"
3408,52.95,-3.42,228,"CYNWYD"
3409,52.9072,-3.5831,163,"BALA"
3410,52.7572,-3.4653,360,"LAKE VYRNWY NO2"
3411,52.57,-3.72,244,"ABERHOSAN"
3414,52.7947,-2.6647,72,"SHAWBURY"
3453,52.7272,-0.6558,136,"COTTESMORE"
3462,52.6114,-0.4611,73,"WITTERING"
3469,52.8733,0.1386,3,"HOLBEACH NO2"
3482,52.6514,0.5661,21,"MARHAM"
3488,52.9494,1.1225,21,"WEYBOURNE"
3495,52.77,1.35,20,"COLTISHALL"
3502,52.1394,-4.5711,133,"ABERPORTH"
3503,52.3442,-3.9481,63,"TRAWSGOED"
3507,52.0633,-3.6147,307,"SENNYBRIDGE NO2"
3520,52.2431,-2.8858,99,"SHOBDON AIRFIELD"
3521,52.03,-2.85,77,"MADLEY"
3522,52.08,-2.8025,76,"HEREFORD, CREDENHILL"
3526,52.2,-2.22,25,"---"
3527,52.12,-2.3,46,"GREAT MALVERN"
3529,52.1483,-2.0411,35,"PERSHORE"
3535,52.48,-1.6908,96,"COLESHILL"
3544,52.3589,-1.3314,107,"CHURCH LAWFORD"
3560,52.2269,-0.4653,85,"BEDFORD"
3590,52.1239,0.9575,89.79,"WATTISHAM"
3591,52.1167,0.9667,89,"WATTISHAM"
3604,51.7089,-5.0533,44,"MILFORD HAVEN CONSERVANCY BOARD"
3605,51.7144,-4.3675,6.78,"PEMBREY SANDS"
3609,51.5656,-3.9817,43,"MUMBLES HEAD"
3628,51.5219,-2.5772,59,"FILTON"
3647,51.8606,-1.6931,210,"LITTLE RISSINGTON"
3649,51.7583,-1.5781,82,"BRIZE NORTON"
3658,51.6203,-1.0986,57,"BENSON"
3660,51.6817,-0.8069,204,"HIGH WYCOMBE HQAIR"
3672,51.5486,-0.4169,33,"NORTHOLT"
3684,51.8961,0.4506,87,"ANDREWSFIELD"
3693,51.5547,0.8269,2,"SHOEBURYNESS, LANDWICK"
3696,51.8544,1.2789,5,"WALTON-ON-THE-NAZE"
3701,51.02,-4.48,122,"GAWLISH"
3707,51.0892,-4.1486,6,"CHIVENOR"
3710,51.0869,-3.6089,348,"LISCOMBE"
3716,51.4053,-3.4408,49,"ST. ATHAN"
3717,51.48,-3.18,9,"CARDIFF WEATHER CENTRE"
3740,51.5031,-1.9922,145,"LYNEHAM"
3743,51.2017,-1.8058,132,"LARKHILL"
3746,51.1617,-1.7547,126,"BOSCOMBE DOWN"
3749,51.1497,-1.57,90.4,"MIDDLE WALLOP"
3761,51.2389,-0.945,118,"ODIHAM"
3768,51.28,-0.7725,65,"SOUTH FARNBOROUGH"
3769,51.1439,-0.2294,67,"CHARLWOOD"
3770,51.5047,-0.1311,5,"LONDON, ST JAMES PARK"
3772,51.4792,-0.4506,25,"HEATHROW"
3779,51.52,-0.1,20,"LONDON WEATHER CENTRE"
3780,51.22,-0.13,63,"REDHILL"
3781,51.3039,-0.0914,170,"KENLEY AIRFIELD"
3784,51.4644,0.3114,3,"GRAVESEND, BROADNESS"
3791,51.45,0.75,25,"SHEERNESS"
3796,51.1336,1.3433,117,"LANGDON BAY"
3797,51.3464,1.3356,49,"MANSTON"
3803,49.9144,-6.2958,31,"SCILLY: ST MARY'S AIRPORT"
3807,50.2167,-5.3167,88,"CAMBORNE"
3808,50.2183,-5.3275,87,"CAMBORNE"
3809,50.0844,-5.2572,76,"CULDROSE"
3810,50.15,-5.07,35,"PENDENNIS POINT"
3817,50.43,-5,119,"ST. MAWGAN"
3820,50.63,-4.6,291,"DAVIDSTOW MOOR"
3823,50.5022,-4.6669,200,"CARDINHAM, BODMIN"
3824,50.57,-4.48,233,"BASTREET"
3827,50.355,-4.1211,50.6,"PLYMOUTH, MOUNT BATTEN"
3837,50.4,-3.48,8,"BRIXHAM"
3839,50.7372,-3.4058,31,"EXETER AIRPORT"
3840,50.8603,-3.2403,252,"DUNKESWELL AERODROME"
3853,51.0064,-2.6428,20,"YEOVILTON"
3857,50.5219,-2.4556,52,"ISLE OF PORTLAND"
3862,50.7794,-1.8361,10,"HURN"
3866,50.5756,-1.2969,20,"WIGHT: ST. CATHERINES POINT"
3872,50.8147,-0.9225,4,"THORNEY ISLAND"
3874,50.8081,-1.2108,9,"SOLENT"
3876,50.8361,-0.2936,2,"SHOREHAM AIRPORT"
3881,50.93,0.6,82,"BREDE"
3882,50.8994,0.3169,52,"HERSTMONCEUX, WEST END"
3894,49.4331,-2.5981,101,"GUERNSEY AIRPORT"
3895,49.2097,-2.1942,84,"JERSEY AIRPORT"
3896,49.2,-2.1,54,"ST. HELIER"
3900,54.42,-8.08,50,"KNOCKAREVAN"
3902,54.43,-8.05,145,"CORGARY"
3903,54.3953,-7.6453,47,"ST ANGELO"
3904,54.7069,-7.5781,49,"CASTLEDERG"
3906,55.02,-7.23,73,"CARMONEY"
3907,55.1603,-6.9483,6,"MAGILLIGAN NO 2"
3908,55.0572,-7.0086,4,"BALLYKELLY"
3911,54.7208,-6.815,225,"LOUGH FEA"
3912,54.72,-6.52,17,"MOYOLA"
3914,55.2,-6.65,8,"PORTRUSH"
3915,54.8653,-6.4583,64,"PORTGLENONE"
3916,55.1806,-6.1547,156,"BALLYPATRICK FOREST"
3917,54.6633,-6.2258,63,"ALDERGROVE"
3920,54.48,-6.1,38,"HILLSBOROUGH"
3923,54.2369,-6.5039,161,"GLENANNE NO2"
3927,54.67,-5.67,11,"BANGOR HARBOUR"
3928,54.85,-5.8,3,"LARNE"
3951,51.4667,-9.4167,21,"SHERKIN ISLAND"
3952,51.8,-8.25,41,"ROCHES POINT"
3953,51.9381,-10.2433,25,"VALENTIA OBSERVATORY"
3955,51.85,-8.4833,162,"CORK AIRPORT"
3956,52.2978,-6.4967,63,"JOHNSTOWN CASTLE"
3961,52.85,-6.9,63,"OAK PARK, CARLOW"
3962,52.7,-8.9167,20,"SHANNON AIRPORT"
3963,53.3167,-9.9,23,"MACE HEAD"
3964,53.2833,-9.0167,21,"GALWAY"
3966,53.0167,-8,76,"GURTEEN"
3967,53.3,-6.4333,93,"CASEMENT AERODROME"
3969,53.4333,-6.25,85,"DUBLIN AIRPORT"
3970,53.7167,-8.9833,69,"CLAREMORRIS"
3971,53.5333,-7.3667,100,"MULLINGAR"
3973,53.9,-8.8167,209,"CONNAUGHT AIRPORT"
3976,54.2333,-10,10,"BELMULLET"
3978,54.4939,-8.2431,34.67,"FINNER"
3979,54.05,-7.3,79,"BALLYHAISE, CAVAN"
3980,55.3667,-7.3333,21,"MALIN HEAD"
4005,66.1610,-23.2538,27.00,"BOLUNGARVIK"
4007,65.8686,-23.5578,16.00,"HOLAR I DYRAFIRDI"
4013,65.0740,-22.7339,13.00,"STYKKISHOLMUR"
4017,66.1006,-22.6594,21.00,"AEDEY"
4018,63.9747,-22.5876,47.00,"KEFLAVIKURFLUGVOLLUR"
4027,65.2297,-21.7543,50.00,"ASGARDUR"
4030,64.1275,-21.9028,52.00,"REYKJAVIK"
4031,66.0213,-21.4250,15.00,"LITLA-AVIK"
4034,64.6430,-21.5893,14.00,"STAFHOLTSEY"
4038,63.8692,-21.1602,3.00,"EYRARBAKKI"
4042,64.2504,-20.3309,89.00,"HJARDARLAND"
4045,65.6580,-20.2925,8.00,"BLONDUOS"
4048,63.3996,-20.2882,118.00,"STORHOFDI"
4051,66.1128,-20.1105,3.00,"HRAUN A SKAGA"
4053,65.7030,-19.6130,43.00,"BERGSTADIR"
4056,64.8668,-19.5622,641.00,"HVERAVELLIR"
4058,63.4236,-19.1830,20.00,"VATNSSKARDSHOLAR"
4059,66.1852,-18.9534,30.00,"SAUDANESVITI"
4061,65.5010,-18.1616,25.00,"TORFUR"
4063,65.6856,-18.1002,23.00,"AKUREYRI"
4064,63.7930,-18.0119,22.00,"KIRKJUBAEJARKLAUSTUR"
4067,65.3764,-17.3874,295.00,"MYRI"
4069,65.8210,-17.3446,40.00,"STADARHOLL"
4071,66.1994,-17.1028,17.00,"MANARBAKKI"
4072,63.8743,-16.6364,9.00,"FAGURHOLSMYRI"
4073,65.6423,-16.1208,384.00,"GRIMSSTADIR"
4077,66.4560,-15.9527,4.00,"RAUFARHOFN"
4082,64.2691,-15.2135,5.00,"HOFN I HORNAFIRDI"
4083,66.0659,-15.0792,25.00,"MIDFJARDARNES"
4085,65.7027,-14.8211,42.00,"SKJALDTHINGSSTADIR"
4089,65.2830,-14.4025,23.00,"EGILSSTADAFLUGVOLLUR"
4097,65.2682,-13.5759,9.00,"DALATANGI"
4101,65.5029,-24.5312,35.00,"BJARGTANGAR"
4102,63.2993,-20.5995,36.00,"SURTSEY"
4103,65.5951,-23.9748,43.00,"PATREKSFJORDUR"
4104,64.9041,-23.9316,7.00,"GUFUSKALAR"
4106,64.8957,-23.7162,19.00,"OLAFSVIK"
4107,66.0760,-23.1987,550.00,"SELJALANDSDALUR"
4108,64.9213,-23.2513,17.00,"GRUNDARFJORDUR"
4109,66.0444,-23.3074,741.00,"THVERFJALL"
4110,64.8393,-23.3018,17.00,"BLAFELDUR"
4111,66.0426,-22.9860,10.00,"SUDAVIK"
4112,64.7268,-21.6297,115.00,"LITLA-SKARD"
4116,64.0817,-22.6893,4.00,"GARDSKAGAVITI"
4117,66.0596,-23.1699,2.00,"ISAFJORDUR"
4118,63.9829,-22.6005,50.00,"KEFLAVIKURFLUGVOLLUR"
4120,63.8438,-22.4170,9.00,"GRINDAVIK"
4121,66.4305,-23.1345,7.00,"STRAUMNESVITI"
4122,65.0717,-22.7324,12.00,"STYKKISHOLMUR"
4123,66.4107,-22.3789,22.00,"HORNBJARGSVITI"
4124,64.0438,-22.0404,7.00,"STRAUMSVIK"
4125,65.6794,-23.6122,16.00,"BILDUDALUR"
4128,64.4647,-21.9628,20.00,"HAFNARMELAR"
4129,65.4377,-22.2056,6.00,"REYKHOLAR"
4130,64.1275,-21.9020,52.00,"REYKJAVIK"
4131,65.9951,-21.3304,28.00,"GJOGURFLUGVOLLUR"
4132,64.1505,-21.7511,35.00,"KORPA"
4133,65.2297,-21.7543,47.00,"ASGARDUR"
4134,64.5622,-21.7649,12.00,"HVANNEYRI"
4135,65.4583,-19.3691,111.00,"NAUTABU"
4136,64.2405,-21.4633,771.00,"SKALAFELL"
4137,65.6961,-18.1113,31.00,"AKUREYRI - KROSSANESBRAUT"
4138,63.9690,-21.6661,530.00,"BLAFJOLL"
4141,65.8170,-17.8857,130.00,"VEGEIRSSTADIR I FNJOSKADAL"
4142,64.2807,-21.0875,110.00,"THINGVELLIR"
4143,65.1839,-20.7850,118.00,"HAUGUR"
4144,63.7477,-20.6182,10.00,"THYKKVIBAER"
4146,63.4359,-20.2758,40.00,"VESTMANNAEYJABAER"
4147,65.3784,-20.2473,20.00,"BRUSASTADIR"
4149,65.2307,-19.7177,506.00,"KOLKA"
4150,64.6990,-20.8690,132.00,"HUSAFELL"
4151,66.1192,-20.0989,9.00,"SKAGATA"
4152,63.7354,-20.1091,90.00,"SAMSSTADIR"
4153,65.3419,-17.2465,403.00,"SVARTARKOT"
4154,64.1168,-19.7449,249.00,"BURFELL"
4155,66.0739,-18.6656,5.00,"OLAFSFJORDUR"
4157,66.1349,-18.9190,6.00,"SIGLUFJORDUR"
4158,64.6043,-19.0186,693.00,"SETUR"
4159,66.1938,-18.8431,8.00,"SIGLUNES"
4160,64.5819,-18.5987,620.00,"THUFUVER"
4162,64.3951,-18.5048,647.00,"VEIDIVATNAHRAUN"
4163,65.7483,-18.0021,580.00,"VADLAHEIDI"
4164,63.4236,-19.1830,20.00,"VATNSSKARDSHOLAR"
4165,66.5438,-18.0167,19.00,"GRIMSEY"
4166,64.3163,-18.2208,726.00,"JOKULHEIMAR"
4167,65.7707,-18.2513,15.00,"MODRUVELLIR"
4168,64.9331,-17.9889,820.00,"SANDBUDIR"
4169,65.1086,-15.5297,373.00,"BRU A JOKULDAL"
4170,63.5179,-17.9785,6.00,"SKARDSFJORUVITI"
4171,66.0418,-17.3281,28.00,"HUSAVIK"
4172,64.0144,-16.9721,86.00,"SKAFTAFELL"
4173,65.6193,-16.9768,282.00,"MYVATN"
4175,66.5082,-16.5444,59.00,"RAUDINUPUR"
4176,64.9284,-15.7771,639.00,"KARAHNJUKAR"
4177,65.0607,-16.2104,563.00,"UPPTYPPINGAR"
4178,64.8151,-15.4235,655.00,"EYJABAKKAR"
4179,66.0300,-16.4833,31.00,"ASBYRGI"
4181,65.3754,-15.8833,452.00,"MODRUDALUR"
4183,66.3783,-14.5326,43.00,"FONTUR"
4184,64.6757,-14.3444,20.00,"TEIGARHORN"
4185,65.0763,-14.0370,2.00,"ESKIFJORDUR"
4186,65.0367,-14.2395,44.00,"KOLLALEIRA I REYDARFIRDI"
4187,65.7857,-14.3082,20.00,"BJARNAREY"
4188,64.9370,-13.6846,5.00,"VATTARNES"
4189,65.0939,-14.7449,60.00,"HALLORMSSTADUR"
4190,65.0795,-14.6748,573.00,"HALLORMSSTADAHALS"
4191,65.2762,-14.4046,23.00,"EGILSSTADAFLUGVOLLUR"
4193,65.2235,-14.2589,949.00,"GAGNHEIDI"
4194,64.5911,-14.1747,49.00,"PAPEY"
4195,65.2549,-14.0064,37.00,"SEYDISFJORDUR"
4196,64.8012,-13.8423,29.00,"KAMBANES"
4197,65.2681,-13.5751,10.00,"DALATANGI"
4198,64.9778,-13.5192,18.00,"SELEY"
4199,65.1503,-13.6694,49.00,"NESKAUPSTADUR"
4202,76.5333,-68.75,59,"PITUFFIK (THULE AIR BASE)"
4203,76.6333,-73,15,"KITSISSUT (CAREY OEER)"
4205,77.4833,-69.3833,17,"MITTARFIK QAANAAQ"
4207,81.6833,-59.9333,105,"HALL LAND"
4208,74.0333,-57.8167,39.5,"KITSISSORSUIT (EDDERFUGLEOEER)"
4211,72.7833,-56.1333,130,"MITTARFIK UPERNAVIK (UPERNAVIK LUFTHAVN)"
4213,70.7333,-52.7,89,"MITTARFIK QAARSUT (UUMMANNAQ LUFTHAVN)"
4214,70.6833,-54.6167,28,"NUUSSUAQ"
4217,68.8167,-51.1667,13,"QASIGIANNGUIT HELIPORT"
4219,69.25,-53.5333,2,"QEQERTARSUAQ HELIPORT"
4220,68.7081,-52.8517,41,"AASIAAT (EGEDESMINDE)"
4221,69.2403,-51.0661,34,"MITTARFIK ILULISSAT (JAKOBSHAVN LUFTHAVN)"
4224,68.7167,-52.7833,27,"MITTARFIK AASIAAT (EGEDESMINDE LUFTHAVN)"
4228,67.7842,-53.965,11.5,"KITSISSUT/ATTU"
4231,67.0167,-50.7167,53,"MITTARFIK KANGERLUSSUAQ (SDR. STROEMFJORD LUFTHAVN)"
4234,66.9514,-53.7294,8,"MITTARFIK SISIMIUT (HOLSTEINSBORG LUFTHAVN)"
4241,65.4167,-52.9333,32,"MITTARFIK MANIITSOQ (SUKKERTOPPEN LUFTHAVN)"
4242,65.0167,-52.55,14,"SIORALIK"
4250,64.1667,-51.75,83.7,"NUUK (GODTHAAB)"
4253,62.5781,-50.4061,22,"UKIIVIT"
4254,64.2,-51.6833,87,"MITTARFIK NUUK (GODTHAAB LUFTHAVN)"
4260,62.0167,-49.6667,36,"MITTARFIK PAAMIUT (FREDERIKSHAAB LUFTHAVN)"
4266,60.7636,-48.4544,32.6,"NUNARSSUIT"
4270,61.1667,-45.4167,31,"MITTARFIK NARSARSUAQ"
4272,60.7156,-46.0433,57.4,"QAQORTOQ (JULIANEHAAB)"
4273,60.7167,-46.0333,21,"QAQORTOQ HELIPORT"
4280,60.9167,-46.0586,6,"NARSAQ HELIPORT"
4282,60.4667,-45.5833,8,"ALLUITSUP PAA HELIPORT"
4283,60.1333,-45.2333,5.18,"NANORTALIK HELIPORT"
4285,59.9911,-45.1461,16.13,"ANGISSOQ"
4301,83.6561,-33.3739,4,"KAP MORRIS JESUP"
4310,81.6,-16.65,43,"STATION NORD"
4312,81.6,-16.65,36,"STATION NORD"
4313,80.6494,-13.7119,10,"HENRIK KROEYER HOLME"
4320,76.7694,-18.6681,12,"DANMARKSHAVN"
4330,74.3075,-20.2169,15,"DANEBORG"
4339,70.4844,-21.9511,71.46,"ITTOQQORTOORMIIT (SCORESBYSUND)"
4341,70.75,-22.65,12,"MITTARFIK NERLERIT INAAT (CONSTABLE PYNT)"
4351,67.7833,-32.3,14,"APUTITEEQ"
4360,65.6111,-37.6367,55.93,"TASIILAQ (AMMASSALIK)"
4361,65.5667,-37.1333,37,"MITTARFIK KULUSUK"
4373,64.7819,-40.3017,80,"IKERMIIT"
4382,61.9364,-42.0678,41.61,"IKERMIUARSSUK"
4390,60.0553,-43.1653,74.75,"IKERASASSUAQ (PRINS CHRISTIAN SUND)"
4416,72.5833,-38.45,3207,"SUMMIT"
4417,72.5803,-38.4586,3255,"GEOSUMMIT"
4418,72.5794,-38.5053,3199,"SUMMIT-US"
4420,75.0006,-29.9972,2614,"NASA-E"
4425,78.0164,-33.9833,2010,"TUNU-N"
4432,78.5267,-56.8306,1993.6,"HUMBOLDT"
4436,77.5022,-50.8744,2450,"NEEM"
4443,73.8414,-49.5069,2334,"NASA-U"
4452,69.4964,-49.6942,905,"JAR 1"
4458,69.5647,-49.3308,1093,"SWISS CAMP"
4464,66.4806,-46.2831,2099,"DYE 2"
4485,65.9994,-44.5008,2467.3,"SADDLE"
4488,66.475,-42.4986,2406.7,"NASA-SE"
4492,63.1489,-44.8172,2901,"SOUTH DOME"
4801,65.5807,-23.8552,370.00,"MIKLIDALUR"
4802,64.8479,-23.4807,361.00,"FRODARHEIDI"
4803,65.5172,-23.7211,400.00,"KLEIFAHEIDI"
4804,63.9628,-20.5669,52.00,"KALFHOLL"
4805,65.6444,-23.7106,525.00,"HALFDAN"
4806,64.3877,-21.4169,61.00,"THYRILL"
4808,64.8221,-23.1894,10.00,"HRAUNSMULI"
4809,65.4924,-24.0925,4.00,"LAMBAVATN"
4810,64.9095,-22.8649,226.00,"VATNALEID"
4812,64.9665,-23.1260,3.00,"KOLGRAFAFJARDARBRU"
4813,66.0449,-22.6817,40.00,"OGUR"
4814,64.4529,-21.4034,500.00,"BOTNSHEIDI"
4817,65.3058,-21.7396,230.00,"SVINADALUR I DOLUM"
4818,64.2318,-21.8046,20.00,"SKRAUTHOLAR"
4819,66.0687,-23.2103,283.00,"SELJALANDSDALUR - SKIDASKALI"
4820,64.0405,-20.2521,87.00,"ARNES"
4822,64.0027,-22.2296,25.00,"REYKJANESBRAUT"
4823,65.6550,-22.6088,330.00,"KLETTSHALS"
4824,64.0197,-22.0919,41.00,"HVASSAHRAUN"
4829,65.7503,-22.1291,440.00,"STEINGRIMSFJARDARHEIDI"
4832,64.4755,-21.9603,25.00,"HAFNARFJALL"
4833,65.5724,-21.3290,260.00,"ENNISHALS"
4836,64.0188,-21.3424,360.00,"HELLISHEIDI"
4837,66.1487,-16.9752,93.00,"TJORNES - GERDIBREKKA"
4838,64.1284,-21.9407,12.00,"REYKJAVIKURFLUGVOLLUR"
4839,64.9899,-21.0576,370.00,"HOLTAVORDUHEIDI"
4841,65.7801,-20.0186,330.00,"THVERARFJALL"
4842,64.3077,-20.2119,191.00,"GULLFOSS"
4843,65.6668,-20.2383,40.00,"BLONDUOS VEGAGERDARSTOD"
4848,64.2106,-21.7667,10.00,"KJALARNES"
4850,63.9800,-21.6556,500.00,"BLAFJOLL URKOMUSTOD"
4851,65.2066,-21.3277,200.00,"LAXARDALSHEIDI"
4852,63.9831,-21.6497,530.00,"BLAFJALLASKALI"
4853,65.5085,-19.6945,420.00,"VATNSSKARD"
4854,64.0624,-21.5577,180.00,"SANDSKEID"
4856,64.8716,-21.5154,390.00,"BRATTABREKKA"
4857,66.1290,-19.0721,20.00,"SIGLUFJARDARVEGUR"
4858,63.9876,-21.4633,260.00,"THRENGSLI"
4859,65.4676,-18.6987,540.00,"OXNADALSHEIDI"
4860,63.4661,-18.6044,35.00,"MYRDALSSANDUR"
4861,65.0628,-18.8383,785.00,"SATA"
4862,64.0333,-21.3665,380.00,"HELLISSKARD"
4864,64.0553,-21.2532,360.00,"OLKELDUHALS"
4865,65.8135,-17.9921,325.00,"VIKURSKARD"
4866,64.1323,-20.5308,60.00,"SKALHOLT"
4867,65.5851,-17.7667,211.00,"REYKIR I FNJOSKADAL"
4868,63.5429,-19.6906,20.00,"STEINAR"
4869,65.6143,-17.2169,350.00,"MYVATNSHEIDI"
4870,63.5784,-19.9016,20.00,"HVAMMUR"
4871,65.7374,-17.1057,350.00,"HOLASANDUR"
4872,64.0255,-18.1196,555.00,"LAUFBALI"
4873,65.6576,-16.5006,390.00,"MYVATNSORAEFI"
4874,63.9575,-17.5550,55.00,"LOMAGNUPUR"
4875,66.2532,-15.8161,180.00,"HALSAR"
4876,63.9362,-17.3503,58.00,"GIGJUKVISL"
4878,63.9387,-16.7959,75.00,"ORAEFI"
4879,65.5947,-15.3158,440.00,"VOPNAFJARDARHEIDI"
4880,64.1678,-21.8038,35.00,"GELDINGANES"
4881,65.4570,-15.5855,550.00,"MODRUDALSORAEFI II"
4883,65.8914,-14.8253,275.00,"SANDVIKURHEIDI"
4884,63.8028,-16.6509,57.00,"INGOLFSHOFDI"
4886,63.9596,-16.4244,30.00,"KVISKER VEGAGERDARSTOD"
4887,65.1264,-14.3327,350.00,"FAGRIDALUR"
4890,64.5712,-18.1111,819.00,"HAGONGUR"
4892,64.4074,-14.5393,20.00,"HVALNES"
4894,64.9068,-14.6034,480.00,"BREIDDALSHEIDI"
4895,65.5623,-13.9897,430.00,"VATNSSKARD EYSTRA"
4897,65.0637,-13.9187,520.00,"ODDSSKARD"
4899,65.1618,-13.6880,559.00,"NESKAUPSTADUR - DRANGAGIL"
4902,64.6956,-21.6359,66.00,"KOLAS"
4904,64.4902,-21.7621,471.00,"SKARDSHEIDI MIDFITJAHOLL"
4905,65.6276,-23.8302,8.00,"TALKNAFJORDUR"
4906,65.9400,-23.4364,250.00,"GEMLUFALLSHEIDI"
4907,65.5640,-22.2461,305.00,"HJALLAHALS"
4908,64.9366,-23.5033,25.00,"BULANDSHOFDI"
4909,64.8310,-22.5328,65.00,"HAFURSFELL"
4911,63.8595,-22.3436,135.00,"FESTARFJALL"
4913,66.2962,-22.9640,0.00,"SLETTUNES JOKULFJORDUM"
4914,64.6943,-22.1473,55.00,"FIFLHOLT A MYRUM"
4916,65.5524,-21.8330,370.00,"THROSKULDAR"
4918,64.2140,-21.3448,270.00,"MOSFELLSHEIDI"
4920,64.1085,-21.6864,130.00,"HOLMSHEIDI"
4922,64.0567,-21.3469,583.00,"SKARDSMYRARFJALL"
4923,66.0711,-19.2785,40.00,"STAFA"
4924,63.9574,-21.0633,51.00,"INGOLFSFJALL"
4926,64.3105,-21.9660,37.00,"AKRAFJALL"
4927,66.1684,-23.2681,500.00,"BOLUNGARVIK - TRADARGIL"
4928,63.8683,-22.4235,57.00,"GRINDAVIKURVEGUR"
4930,64.1274,-21.9024,52.00,"REYKJAVIK BUVEDURSTOD"
4932,64.1276,-21.9041,52.00,"REYKJAVIK TURNTHAK"
4933,65.3444,-20.8040,120.00,"GAUKSMYRI"
4934,64.1276,-21.9022,52.00,"REYKJAVIK SOLGEISLUN"
4935,65.6873,-21.6813,10.00,"HOLMAVIK"
4936,64.9859,-22.8085,70.00,"STORHOLT"
4937,65.6856,-18.1002,23.00,"AKUREYRI LOGREGLUSTOD"
4938,63.5242,-19.6357,12.00,"ONUNDARHORN"
4939,63.9034,-17.2740,0.00,"SKEIDARARSANDUR"
4940,63.9306,-20.6653,49.00,"THJORSARBRU"
4941,65.6423,-16.1284,382.00,"GRIMSSTADIR A FJOLLUM"
4942,64.2509,-20.3312,88.00,"HJARDARLAND"
4943,66.0808,-23.3733,270.00,"BOTN I SUGANDAFIRDI"
4944,63.8257,-20.3654,20.00,"HELLA"
4945,65.1230,-20.6961,383.00,"AUSTURARDALSHALS"
4948,64.0293,-20.0189,125.00,"MORK A LANDI"
4949,66.1022,-18.8130,20.00,"HEDINSFJORDUR"
4950,64.1956,-19.0467,539.00,"VATNSFELL"
4951,66.0424,-18.5208,73.00,"OLAFSFJARDARVEGUR VID SAUDANES"
4952,63.7757,-19.6773,870.00,"TINDFJOLL"
4953,65.7259,-19.5737,0.00,"SAUDARKROKUR FLUGVOLLUR"
4954,63.6791,-19.4814,239.00,"BASAR A GODALANDI"
4955,66.0630,-18.6309,450.00,"OLAFSFJORDUR - TINDAOXL"
4956,63.4521,-19.0378,125.00,"REYNISFJALL"
4957,66.1535,-18.9352,550.00,"SIGLUFJORDUR - HAFNARFJALL"
4958,63.6216,-20.0285,42.00,"MARKARFLJOT"
4959,66.1784,-18.9752,66.00,"SIGLUFJARDARVEGUR HERKONUGIL"
4960,64.1575,-20.3678,66.00,"BRAEDRATUNGUVEGUR"
4963,65.9518,-18.4593,103.00,"HAMUNDARSTADAHALS"
4965,66.1631,-17.8408,22.00,"FLATEY A SKJALFANDA"
4967,65.9110,-16.9762,311.00,"THEISTAREYKIR"
4968,64.2018,-20.8062,215.00,"LYNGDALSHEIDI"
4970,63.9777,-16.4366,30.00,"KVISKER"
4971,65.7873,-17.0035,390.00,"GAESAFJOLL"
4973,66.2984,-15.8933,217.00,"HOFASKARD"
4975,65.5583,-16.0113,521.00,"BISKUPSHALS"
4976,64.8257,-14.6573,531.00,"OXI"
4977,65.8560,-17.2015,390.00,"RAUDHALSAR"
4978,64.8281,-16.0897,748.00,"BRUARORAEFI"
4979,65.0009,-14.4625,500.00,"THORDALSHEIDI"
4980,64.9957,-14.5106,300.00,"BRUDARDALUR"
4981,65.0182,-14.4535,634.00,"HALLSTEINSDALSVARP"
4982,64.7280,-16.1117,845.00,"BRUARJOKULL B10"
4983,66.0668,-15.0799,25.00,"MIDFJARDARNES"
4985,65.7036,-14.8208,34.00,"SKJALDTHINGSSTADIR"
4986,63.8456,-21.6959,20.00,"SELVOGUR"
4987,65.6945,-16.7748,455.00,"KRAFLA"
4989,65.6970,-17.5032,238.00,"FLJOTSHEIDI"
4990,64.7981,-13.8901,37.00,"KAMBASKRIDUR"
4991,65.3019,-15.2237,473.00,"JOKULDALUR"
4992,64.6558,-14.4527,19.00,"HAMARSFJORDUR"
4993,65.6571,-15.1652,212.00,"HAUKSSTADIR"
4994,64.7199,-14.0363,10.00,"STREITI"
4995,65.2651,-14.0329,400.00,"SEYDISFJORDUR - KALFABOTNAR"
4998,64.9372,-14.0407,8.00,"FASKRUDSFJORDUR LJOSALAND"
6005,62.0972,-7.6797,99.87,"MYKINES FYR"
6008,61.5436,-6.7744,17,"FRODBA HELIPORT"
6009,61.3956,-6.6817,101.97,"AKRABERG FYR"
6010,62.0664,-7.2847,88,"VAGA FLOGHAVN"
6011,62.0231,-6.7647,55.86,"TORSHAVN"
6012,62.3194,-6.3206,55.57,"KIRKJA"
6013,62.2178,-6.5767,75,"KLAKSVIK HELIPORT"
6016,55.5069,7.8736,21,"HORNS REV A"
6017,55.5994,7.6225,10,"HORNS REV B"
6019,56.9292,8.6411,41,"SILSTRUP"
6021,57.1217,8.5947,3,"HANSTHOLM"
6022,55.7214,4.8017,43,"TYRA OEST"
6024,57.0667,8.7114,8,"THISTED LUFTHAVN"
6029,57.0483,10.0519,2,"GROENLANDSHAVNEN"
6030,57.0964,9.8506,13,"FLYVESTATION AALBORG"
6031,57.1853,9.9525,13,"TYLSTRUP"
6032,57.3828,10.335,56.29,"STENHOEJ"
6033,57.5956,9.9581,3,"HIRTSHALS"
6034,57.5044,10.2228,28,"SINDAL FLYVEPLADS"
6041,57.7364,10.6317,4.8,"SKAGEN FYR"
6042,57.4361,10.5489,3,"FREDERIKSHAVN"
6043,57.4,10.52,80,"FREDERIKSHAVN"
6044,56.9903,10.3089,16,"HALS"
6049,56.5606,10.0928,89.2,"HALD VEST"
6051,56.7636,8.3206,18,"VESTERVIG"
6052,56.7067,8.215,3.64,"THYBOROEN"
6055,56.3717,8.1206,5,"TORSMINDE"
6056,56.3831,8.6703,54.62,"MEJRUP"
6058,56.0072,8.1411,4.16,"HVIDE SANDE"
6060,56.2933,9.1139,53,"FLYVESTATION KARUP"
6063,56.8922,9.1669,2,"RONBJERG HUSE HAVN"
6065,56.7558,9.5067,33.33,"AARS SYD"
6066,55.9911,8.3539,6,"STAUNING LUFTHAVN"
6068,56.0939,9.1811,61.95,"ISENVAD"
6069,56.4931,9.5708,57.82,"FOULUM"
6070,56.3083,10.6256,23,"AARHUS LUFTHAVN"
6072,56.3028,10.1272,62.04,"OEDUM"
6073,56.0956,10.5136,5.85,"SLETTERHAGE FYR"
6074,56.0803,10.1353,55.47,"AARHUS SYD"
6079,56.7169,11.5097,3.55,"ANHOLT HAVN"
6080,55.5281,8.5631,29,"ESBJERG LUFTHAVN"
6081,55.5575,8.0828,17.62,"BLAAVANDSHUK FYR"
6082,55.9592,8.6242,25,"BORRIS"
6088,55.4483,8.3997,4,"NORDBY"
6093,55.2911,8.655,4.72,"VESTER VEDSTED"
6096,55.1906,8.56,8.9,"ROEMOE/JUVRE"
6099,55.0861,8.5644,3,"HAVNEBY"
6100,55.7,9.2,73,"VANDEL"
6102,55.8681,9.7869,23.82,"HORSENS/BYGHOLM"
6104,55.7381,9.1675,80,"BILLUND LUFTHAVN"
6108,55.4375,9.3336,45,"KOLDINGEGNENS LUFTHAVN"
6109,55.4714,9.1122,62,"ASKOV"
6110,55.2253,9.2633,47,"FLYVESTATION SKRYDSTRUP"
6116,54.8986,9.1225,17.02,"STORE JYNDEVAD"
6118,54.9622,9.7875,18,"SOENDERBORG LUFTHAVN"
6119,54.8528,9.9881,18.66,"KEGNAES FYR"
6120,55.475,10.3306,21,"ODENSE LUFTHAVN"
6123,55.2444,9.8883,3.39,"ASSENS/TOROE"
6124,55.0144,10.5694,7,"SYDFYNS FLYVEPLADS"
6126,55.3089,10.4397,50.93,"AARSLEV"
6132,55.8317,10.6217,16,"TRANEBJERG OEST"
6135,55.3217,11.3881,34.22,"FLAKKEBJERG"
6136,55.2464,11.3283,12,"TYSTOFTE"
6138,54.8206,10.9939,3.69,"LANGOE"
6141,54.8275,11.3289,9.12,"ABED"
6143,54.7,11.45,4,"MARIBO"
6147,54.8789,12.1842,4.63,"VINDEBAEK KYST"
6149,54.5686,11.9436,4.89,"GEDSER"
6151,55.1592,11.1347,2.7,"OMOE FYR"
6154,55.2075,11.8603,46.11,"BRANDELEV"
6156,55.7358,11.6033,13.34,"HOLBAEK FLYVEPLADS"
6158,55.6736,11.0975,2,"KALUNDBORG"
6159,55.7436,10.8694,15.75,"ROESNAES FYR"
6160,55.77,12.33,31,"VAERLOESE"
6165,56.1961,11.71,17.98,"HESSELOE"
6168,56.1192,12.3422,43,"NAKKEHOVED FYR"
6169,56.0083,11.2783,15.98,"GNIBEN"
6170,55.5869,12.1364,43,"ROSKILDE LUFTHAVN"
6174,55.3956,12.1492,22.31,"TESSEBOELLE"
6179,54.95,12.5333,17,"MOEN"
6180,55.6142,12.6453,5,"KOEBENHAVNS LUFTHAVN"
6181,55.7664,12.5264,42,"JAEGERSBORG"
6183,55.5364,12.7114,14.42,"DROGDEN FYR"
6184,55.7161,12.5622,9.8,"DMI"
6186,55.6861,12.5439,7,"KOEBENHAVN/LANDBOHOEJSKOLEN"
6187,55.6886,12.5986,20,"KOEBENHAVNS TOLDBOD"
6188,55.8764,12.4122,41.28,"SJAELSMARK"
6190,55.0678,14.7494,17,"BORNHOLMS LUFTHAVN"
6193,55.2981,14.7719,9.36,"HAMMER ODDE FYR"
6197,55.0558,15.0953,24.85,"NEXOE VEST"
6201,54.3256,2.9358,35.62,"D15-FA-1"
6203,52.36,3.3417,23.9,"P11-B"
6204,53.2694,3.6278,27,"K14-FA-1C"
6205,55.3992,3.8103,33.1,"A12-CPP"
6206,54.1167,4.0122,27.8,"F16-A"
6207,53.6144,4.9603,29.8,"L9-FF-1"
6208,53.4917,5.9417,26.5,"AWG-1"
6209,52.4636,4.5175,0,"IJMOND WP"
6210,52.1703,4.4294,1.38,"VALKENBURG AWS"
6211,53.8242,2.9453,34.3,"J6-A"
6212,52.9181,4.1503,40.5,"HOORN-A"
6225,52.4622,4.555,4,"IJMUIDEN WP"
6229,52.995,4.72,1,"TEXELHORS WP"
6235,52.9269,4.7811,1.12,"DE KOOIJ VK"
6239,54.8539,4.6961,24.4,"F3-FB-1"
6240,52.3156,4.7903,-2.69,"AMSTERDAM AP SCHIPHOL"
6242,53.24,4.9208,10.43,"VLIELAND"
6248,52.6325,5.1736,0.8,"WIJDENES WP"
6249,52.6428,4.9789,-2.4,"BERKHOUT AWS"
6251,53.3911,5.3458,2.3,"TERSCHELLING HOORN AWS"
6252,53.2178,3.2203,31.24,"K13-A"
6253,56.4,2.07,34,"AUK-ALFA"
6254,52.27,4.3,17,"MEETPOST NOORDWIJK"
6255,61.23,1.15,47,"NOORDELIJKE ZEERAAF"
6257,52.5053,4.6031,8.5,"WIJK AAN ZEE AWS"
6258,52.6481,5.4006,7.25,"HOUTRIBDIJK WP"
6260,52.0989,5.1797,3.5,"DE BILT AWS"
6265,52.1333,5.2667,16,"SOESTERBERG"
6267,52.8967,5.3833,-1.3,"STAVOREN AWS"
6269,52.4572,5.5197,-3.89,"LELYSTAD AP"
6270,53.2231,5.7517,1.83,"LEEUWARDEN"
6273,52.7019,5.8875,-3.35,"MARKNESSE AWS"
6275,52.0547,5.8722,46.74,"DEELEN"
6277,53.4117,6.1992,2.9,"LAUWERSOOG AWS"
6278,52.4344,6.2589,3.6,"HEINO AWS"
6279,52.7489,6.5731,17.43,"HOOGEVEEN AWS"
6280,53.1236,6.5847,4,"GRONINGEN AP EELDE"
6283,52.0678,6.6567,29.07,"HUPSEL AWS"
6285,53.5739,6.3983,0,"HUIBERTGAT WP"
6286,53.1944,7.1492,-0.2,"NIEUW BEERTA AWS"
6290,52.2731,6.8908,34.55,"TWENTE AWS"
6308,51.38,3.3792,0,"CADZAND WP"
6310,51.4414,3.5958,9.65,"VLISSINGEN AWS"
6311,51.3778,3.6722,0,"HOOFDPLAAT"
6312,51.7667,3.6217,0,"OOSTERSCHELDE WP"
6313,51.5036,3.2419,0,"VLAKTE VAN RAAN"
6315,51.4458,3.9975,0,"HANSWEERT"
6316,51.6558,3.6939,0,"OOSTERSCHELDE 4"
6319,51.2247,3.8611,3.11,"WESTDORPE AWS"
6320,51.9258,3.67,19.2,"LICHTEILAND GOEREE"
6321,51.9978,3.275,17.65,"EURO PLATFORM"
6323,51.5258,3.8836,3.24,"WILHELMINADORP AWS"
6324,51.5956,4.0061,0,"STAVENISSE"
6330,51.9911,4.1217,12.48,"HOEK VAN HOLLAND AWS"
6331,51.4786,4.1925,0,"MAROLLEGAT"
6340,51.4478,4.3419,16.61,"WOENSDRECHT"
6343,51.8919,4.3125,3.5,"ROTTERDAM GEULHAVEN"
6344,51.9606,4.4469,-4.52,"ROTTERDAM THE HAGUE AP"
6348,51.9692,4.9258,0.86,"CABAUW TOWER AWS"
6350,51.565,4.9353,13.47,"GILZE RIJEN"
6356,51.8578,5.1453,2.56,"HERWIJNEN AWS"
6370,51.4497,5.3769,22.41,"EINDHOVEN AP"
6375,51.6583,5.7067,21.41,"VOLKEL"
6377,51.1967,5.7625,30,"ELL AWS"
6380,50.9053,5.7619,113.4,"MAASTRICHT AACHEN AP"
6391,51.4972,6.1961,19.5,"ARCEN AWS"
6400,51.0833,2.65,9,"KOKSIJDE"
6407,51.2,2.8667,6,"OOSTENDE (AIRPORT)"
6408,51.2333,2.9167,9,"OOSTENDE (PIER)"
6414,50.9,3.1167,25,"BEITEM"
6418,51.3333,3.2,9,"ZEEBRUGGE"
6428,50.9333,3.6667,37,"SEMMERZAKE"
6431,51.1833,3.8,8,"GENT/INDUSTRIE-ZONE"
6432,50.5667,3.8333,63,"CHIEVRES"
6434,50.9833,3.8167,15,"MELLE"
6447,50.8,4.35,101,"UCCLE"
6449,50.4667,4.45,192,"CHARLEROI/GOSSELIES"
6450,51.2,4.4667,21,"ANTWERPEN/DEURNE"
6451,50.9,4.5333,58,"BRUSSELS NATIONAL (AIRPORT)"
6452,51.3333,4.5,23,"BRASSCHAAT"
6455,50.1,4.6,233,"DOURBES"
6456,50.2333,4.65,299,"FLORENNES"
6458,50.75,4.7667,127,"BEAUVECHAIN"
6459,50.5667,4.6833,157,"ERNAGE"
6464,51.2167,5.0333,21,"RETIE"
6465,51,5.0667,54,"SCHAFFEN"
6472,50.2,5.25,296,"HUMAIN"
6476,50.0333,5.4,557,"ST-HUBERT"
6477,50.9167,5.45,39,"DIEPENBEEK"
6478,50.65,5.4667,187,"BIERSET"
6479,51.1667,5.4667,64,"KLEINE BROGEL"
6480,49.6,5.48,252,"MEIX-DEVANT-VIRTON"
6481,50.9333,5.5,63,"GENK"
6484,49.6167,5.5833,324,"BUZENOL"
6490,50.4833,5.9167,483,"SPA/LA SAUVENIERE"
6494,50.5167,6.0667,673,"MONT-RIGI"
6496,50.4667,6.1833,570,"ELSENBORN"
6585,50.05,6.0167,454,"CLERVAUX"
6589,49.65,6.1333,235,"LUXEMBOURG (BEGGEN)"
6590,49.6167,6.2167,376,"LUXEMBOURG/LUXEMBOURG"
6597,49.8,6.45,244,"ECHTERNACH"
6600,47.5717,7.6872,493,"ST. CHRISCHONA"
6601,47.5411,7.5836,317.31,"BASEL / BINNINGEN"
6602,47.3644,7.3306,467,"DELEMONT"
6603,47.3589,7.3489,415,"DELEMONT"
6604,47.0006,6.9542,485.48,"NEUCHATEL"
6605,47.1317,7.0544,1595.15,"CHASSERAL"
6606,47.0475,7.0592,432.43,"CRESSIER"
6607,47.1203,7.2575,433,"BIEL"
6608,47.0514,6.9878,1141.11,"CHAUMONT"
6609,46.5461,7.0178,1975.19,"LE MOLESON"
6610,46.8117,6.9425,490.49,"PAYERNE"
6612,47.0833,6.7925,1018.1,"LA CHAUX-DE-FONDS"
6616,47.4239,6.9411,597.59,"FAHY"
6617,46.9819,6.6086,1048,"LA BREVINE"
6618,46.7506,6.5861,436.43,"MATHOD"
6619,46.8406,6.5764,1206.12,"BULLET / LA FRETAZ"
6620,47.6897,8.62,439.43,"SCHAFFHAUSEN"
6621,47.6017,9.2794,441.44,"GUETTINGEN"
6622,47.7975,8.5944,740,"BARGEN"
6623,47.65,9.0211,701.7,"SALEN-REUTENEN"
6624,47.6972,8.4706,420.42,"HALLAU"
6625,46.7714,7.1136,647.64,"FRIBOURG / POSIEUX"
6626,47.3631,7.9736,381.38,"GOESGEN"
6627,46.4797,7.1397,1030.1,"CHATEAU-D'OEX"
6628,46.7478,7.2661,1043.1,"PLAFFEIEN"
6629,46.9522,7.2831,775,"MUEHLEBERG / STOCKEREN"
6630,46.9139,7.4997,510,"BERN-BELPMOOS"
6631,46.9908,7.4639,554.55,"BERN / ZOLLIKOFEN"
6632,47.1792,7.415,431.43,"GRENCHEN"
6633,47.3844,8.0794,388.38,"BUCHS / AARAU"
6634,46.9778,7.5286,941.5,"BANTIGER"
6635,47.1189,7.6056,485.48,"KOPPIGEN"
6636,46.9733,7.2781,481.48,"MUEHLEBERG"
6637,46.7322,8.1692,590.59,"MEIRINGEN"
6638,46.9397,7.8064,746.74,"LANGNAU I.E."
6639,47.0047,7.94,1405.14,"NAPF"
6640,47.55,7.8,280,"RHEINFELDEN"
6641,47.5722,7.8778,345.34,"MOEHLIN"
6643,47.255,7.7875,423.42,"WYNAU"
6644,47.2447,8.2344,453,"MOSEN"
6645,47.4344,7.8794,612.61,"RUENENBERG"
6646,47.5572,8.2333,327.32,"BEZNAU"
6647,47.5383,8.2294,335.33,"WUERENLINGEN"
6648,47.1794,8.0047,522.52,"EGOLZWIL"
6650,47.0364,8.3008,455.45,"LUZERN"
6651,46.9469,8.0122,743.74,"SCHUEPFHEIM"
6655,46.8219,8.4106,1036.1,"ENGELBERG"
6656,46.7431,8.06,579.57,"BRIENZ"
6657,46.8494,8.1903,476.47,"GISWIL"
6658,46.9431,8.2858,442,"ALPNACH"
6659,46.9789,8.2522,2103.21,"PILATUS"
6660,47.3778,8.5658,557.55,"ZUERICH / FLUNTERN"
6661,47.2842,8.5119,928,"ALBIS"
6664,47.4278,8.5178,444.44,"ZUERICH / AFFOLTERN"
6666,47.5972,8.1883,342.34,"LEIBSTADT"
6669,47.4819,8.3972,845.84,"LAEGERN"
6670,47.4797,8.5358,427.42,"ZUERICH / KLOTEN"
6671,47.6686,8.9814,399.39,"STECKBORN"
6672,46.8869,8.6217,439.43,"ALTDORF"
6673,47.2206,8.6778,486.48,"WAEDENSWIL"
6674,47.1883,8.4656,442.44,"CHAM"
6675,47.1269,8.7539,909.9,"EINSIEDELN"
6676,47.1336,8.6081,724,"OBERAEGERI"
6677,47.3514,8.4903,854,"UETLIBERG"
6678,47.4975,9.2347,468.46,"BISCHOFSZELL"
6679,47.48,8.905,539.53,"AADORF / TAENIKON"
6680,47.2494,9.3436,2494.24,"SAENTIS"
6681,47.4256,9.3983,777.77,"ST. GALLEN"
6682,46.9239,9.1753,959.95,"ELM"
6683,47.2247,8.9403,409.4,"SCHMERIKON"
6685,47.0347,9.0669,517.51,"GLARUS"
6686,47.0167,9.5025,497.49,"BAD RAGAZ"
6687,47.1286,9.2161,420.42,"QUINTEN"
6688,46.8422,9.18,2481.24,"CRAP MASEGN"
6689,47.3708,8.9417,1134.11,"HOERNLI"
6690,47.4836,9.5664,399.39,"ALTENRHEIN"
6693,47.2731,9.1064,635.63,"EBNAT-KAPPEL"
6695,46.6333,8.5944,1442,"ANDERMATT"
6699,46.425,6.0992,1680,"LA DOLE"
6700,46.2475,6.1278,412.41,"GENEVE-COINTRIN"
6701,46.5942,6.2203,1015,"LE CHENIT"
6702,46.4247,6.0994,1670.16,"LA DOLE"
6704,46.525,6.3425,684.68,"BIERE"
6705,46.4011,6.2278,459.45,"NYON / CHANGINS"
6706,46.4836,6.4431,425,"ST-PREX"
6707,46.45,6.9,408,"MONTREUX-CLARENS"
6708,46.5722,6.8583,828.82,"ORON"
6709,46.3933,6.8569,375,"BOUVERET"
6711,46.5122,6.6675,456.45,"PULLY"
6712,46.3267,6.9244,382.38,"AIGLE"
6714,46.3269,7.2039,2966,"LES DIABLERETS"
6715,46.1831,7.0267,480,"EVIONNAZ"
6717,45.8689,7.1708,2487.24,"COL DU GRAND ST-BERNARD"
6720,46.2186,7.3303,482.48,"SION"
6722,46.1122,7.5086,1828.18,"EVOLENE / VILLA"
6723,46.0992,7.2686,2733,"LES ATTELAS"
6724,46.2986,7.4608,1424.14,"MONTANA"
6725,46.4194,7.8211,1535,"BLATTEN, LOETSCHENTAL"
6727,46.3028,7.8431,640.64,"VISP"
6728,46.2025,7.8411,1550,"GRAECHEN"
6729,46.6131,7.9408,2230,"MAENNLICHEN"
6730,46.5475,7.9853,3576.35,"JUNGFRAUJOCH"
6731,46.7617,7.6083,560,"THUN"
6732,46.7339,7.5817,638,"AMSOLDINGEN"
6733,46.6236,7.3842,820,"BOLTIGEN"
6734,46.6722,7.8703,578.57,"INTERLAKEN"
6735,46.4919,7.5611,1326.13,"ADELBODEN"
6738,46.4667,7.2833,1045,"GSTAAD"
6739,46.4267,8.0928,2893,"EGGISHORN"
6740,46.7706,8.4258,3040,"TITLIS"
6744,46.5717,8.3333,1961.19,"GRIMSEL HOSPIZ"
6745,46.5047,8.3081,1347.13,"ULRICHEN"
6747,45.9567,7.8147,2887.28,"MONTE ROSA"
6748,46.0292,7.7531,1639.16,"ZERMATT"
6749,45.9831,7.7844,3130.31,"GORNERGRAT"
6750,46.6533,8.6161,2289.22,"GUETSCH OB ANDERMATT"
6751,46.4431,8.5133,1896.18,"ROBIEI"
6752,46.3203,8.6033,416,"CEVIO"
6753,46.5147,8.6881,990.99,"PIOTTA"
6754,46.41,8.9247,2171,"MATRO"
6756,46.4594,8.9356,576.57,"ACQUAROSSA / COMPROVASCO"
6757,46.2972,8.9878,261,"LODRINO"
6758,46.2517,9.1517,382,"GRONO"
6759,46.2006,8.7917,1662.16,"CIMETTA"
6760,46.1725,8.7875,374.37,"LOCARNO / MONTI"
6762,46.16,8.9336,204.2,"MAGADINO / CADENAZZO"
6768,46.0408,8.8333,1625,"MONTE LEMA"
6770,46.0042,8.9603,301.3,"LUGANO"
6771,45.8433,8.9322,352.35,"STABIO"
6775,46.0019,8.9072,279,"LUGANO-AGNO"
6777,45.9261,9.0144,1617.16,"MONTE GENEROSO"
6778,46.6481,10.2672,1969.19,"BUFFALORA"
6779,46.4392,9.7656,1798,"SEGL-MARIA"
6780,46.8333,9.8064,2673.26,"WEISSFLUHJOCH"
6781,46.7508,9.0453,800,"TAVANASA"
6782,46.7067,8.8533,1198.11,"DISENTIS / SEDRUN"
6783,46.4636,9.1847,1640.16,"S. BERNARDINO"
6784,46.8131,9.8436,1595.15,"DAVOS"
6785,46.7792,9.6744,1846.18,"AROSA"
6786,46.8703,9.5306,557.55,"CHUR"
6787,46.61,9.4319,988.98,"ANDEER"
6788,46.5167,9.1833,1681,"HINTERRHEIN"
6789,46.3833,9.6667,1421,"LOEBBIA"
6791,46.4181,9.8211,3302.33,"PIZ CORVATSCH"
6792,46.5264,9.8789,1709.17,"SAMEDAN"
6793,46.755,9.5544,1570.15,"VALBELLA"
6794,46.3467,10.0611,1079.1,"POSCHIAVO / ROBBIA"
6795,46.5772,9.5297,2671.26,"PIZ MARTEGNAS"
6796,46.6022,10.4264,1384.13,"STA. MARIA, VAL MUESTAIR"
6797,46.4106,10.0228,2257.22,"PASSO DEL BERNINA"
6798,46.7933,10.2833,1305.13,"SCUOL"
6799,46.8172,10.2614,2401.24,"NALUNS / SCHLIVERA"
6801,46.845,6.9167,445,"PAYERNE"
6802,46.2222,7.3356,482,"SION"
6805,47.0972,8.3081,426,"EMMEN"
6806,46.9769,8.3908,442,"BUOCHS"
6807,47.3992,8.6225,435,"DUEBENDORF"
6808,46.1667,8.88,196,"MAGADINO"
6809,46.295,8.9933,259,"LODRINO"
6810,47.08,9.0667,447,"MOLLIS"
6842,47.5097,9.2614,506,"SITTERDORF"
6843,45.8592,8.9486,360,"LIGORNETTO"
6845,47.4344,7.8794,611.17,"RUENENBERG MIL"
6846,46.7214,9.5108,2323,"SCALOTTAS"
6847,46.7872,8.0431,2280,"BRIENZER ROTHORN"
6848,46.9492,9.6033,1120,"VALZEINA"
6849,47.2331,9.4933,436,"SALEZ"
6850,47.2947,8.8861,1115,"BACHTEL"
6851,47.2567,8.7675,522,"LUETZELSEE"
6852,46.8183,10.3431,1420,"SENT"
6853,46.9683,8.6369,1921,"FRONALPSTOCK"
6901,46.9508,7.4406,532.53,"BERN / BOLLWERK"
6902,47.0494,6.9792,1138.11,"CHAUMONT / BOSSET"
6903,46.8153,9.8558,1639.16,"DAVOS / SEEHORNWALD"
6904,47.4028,8.6136,434.43,"DUEBENDORF / GIESSEN"
6905,47.3119,7.8206,432.43,"HAERKINGEN"
6906,47.4783,8.3644,690.69,"LAEGEREN / ZINDELEN"
6907,46.5222,6.6397,527.52,"LAUSANNE"
6908,47.0675,8.4633,1032.1,"RIGI / SEEBODENALP"
6909,47.3775,8.5303,407.4,"ZUERICH"
6990,47.1275,9.5175,458.45,"VADUZ"
7002,50.7325,1.5997,68,"BOULOGNE"
7003,50.5144,1.6228,20,"LE TOUQUET"
7005,50.1361,1.8389,74,"ABBEVILLE"
7010,51.0558,2.3394,16,"DUNKERQUE"
7015,50.57,3.0975,47,"LILLE-LESQUIN"
7017,50.2186,3.1528,77,"CAMBRAI-EPINOY"
7020,49.7253,-1.9397,7,"PTE DE LA HAGUE"
7024,49.6361,-1.4636,138,"MAUPERTUS GONNEVILLE"
7027,49.18,-0.4561,67,"CAEN-CARPIQUET"
7028,49.5089,0.0711,104,"CAP-DE-LA HEVE"
7031,49.3644,0.1669,143,"ST GATIEN DES B"
7037,49.3831,1.1814,152,"ROUEN-BOOS"
7038,49.025,1.2217,138,"EVREUX-HUEST"
7039,49.5167,-1.5,61,"VALOGNES"
7040,49.9325,1.0889,40,"DIEPPE"
7046,49.5331,0.0842,94,"LE HAVRE OCTEVILLE"
7055,49.4464,2.1272,111,"BEAUVAIS-TILLE"
7057,49.2522,2.5208,88,"CREIL"
7059,49.9719,2.7039,112,"MEAULTE"
7061,49.8183,3.2061,101,"SAINT-QUENTIN"
7070,49.3061,4.0506,91,"REIMS-COURCY"
7075,49.7828,4.6431,148,"CHARLEVILLE-MEZ"
7083,50.1283,3.8119,192,"AVESNES RADAR"
7090,49.0731,6.1256,191,"METZ-FRESCATY"
7093,48.9794,6.2431,258,"GOIN AEROPORT M.N.L."
7100,48.4733,-5.0569,68,"OUESSANT-STIFF"
7103,48.0389,-4.7319,81,"POINTE DU RAZ"
7107,48.6764,-4.3311,18,"BRIGNOGAN"
7108,48.4608,-4.4297,96,"PLABENNEC-RADAR"
7110,48.4442,-4.4119,95,"BREST-GUIPAVAS"
7117,48.8258,-3.4731,58,"PLOUMANAC'H"
7118,48.7553,-3.4686,87,"LANNION"
7120,48.5364,-2.8531,136,"TREMUSON-ST-BRIEUC"
7125,48.5889,-2.0747,59,"DINARD"
7129,48.9272,-0.1494,155,"FALAISE-RADAR"
7130,48.0689,-1.7339,43,"RENNES-SAINT JACQUES"
7134,48.0306,-0.7464,100,"LAVAL-ETRONNIER"
7139,48.4456,0.1103,144,"ALENCON"
7140,48.0617,1.3767,127,"CHATEAUDUN"
7143,48.4606,1.5011,156,"CHARTRES"
7145,48.7744,2.0097,174,"TRAPPES"
7146,48.7506,2.1136,161,"TOUSSUS LE NOBLE"
7147,48.77,2.2,179,"VILLACOUBLAY"
7149,48.7169,2.3844,90,"ORLY"
7150,48.9672,2.4272,49,"LE BOURGET"
7153,48.6103,2.6794,92,"MELUN"
7156,48.8217,2.3378,77,"PARIS-MONTSOURIS"
7157,49.0153,2.5344,112,"ROISSY"
7166,48.7772,4.1647,167,"VATRY-AERO"
7167,48.4622,4.3094,156,"ARCIS RADAR"
7168,48.3247,4.02,118,"TROYES-BARBEREY"
7169,48.6314,4.9036,140,"SAINT-DIZIER"
7173,48.2167,6.45,320,"EPINAL-DOGNEVILLE"
7180,48.6878,6.2214,213,"NANCY-ESSEY"
7181,48.5811,5.9597,343,"NANCY-OCHEY"
7182,48.7158,6.5814,286,"RECHICOURT-RADAR"
7190,48.5494,7.6403,151,"STRASBOURG-ENTZHEIM"
7197,47.9333,7.4,211,"MEYENHEIM-COLMAR"
7200,47.7975,-4.3747,19,"PTE DE PENMARCH"
7201,47.9728,-4.1725,94,"QUIMPER"
7203,47.6522,-3.5022,45,"ILE DE GROIX"
7205,47.7628,-3.4356,44,"LORIENT LANN BIHOUE"
7207,47.2944,-3.2183,43,"BELLE ILE-LE TALUT"
7210,47.6,-2.7167,3,"VANNES-SENE"
7217,47.3139,-2.1544,4,"SAINT-NAZAIRE-MONTOIR"
7222,47.15,-1.6089,26,"NANTES-BOUGUENAIS"
7223,47.3372,-1.6564,69,"TREILLIERES-RADAR"
7230,47.4789,-0.6144,48,"BEAUCOUZE"
7235,47.9458,0.1939,52,"LE MANS"
7240,47.4444,0.7272,112,"TOURS"
7245,47.6794,1.2122,125,"BLOIS"
7247,47.3197,1.6875,86,"ROMORANTIN"
7249,47.9833,1.7767,125,"ORLEANS"
7255,47.0592,2.3597,166,"BOURGES"
7257,47.0606,2.6422,177,"AVORD"
7260,46.9983,3.1128,177,"NEVERS-MARZY"
7265,47.8014,3.5456,212,"AUXERRE"
7270,47.07,3.93,598,"CHATEAU-CHINON"
7274,47.3553,4.7761,592,"BLAISY HAUT RADAR"
7280,47.2678,5.0883,227,"DIJON-LONGVIC"
7283,47.8436,5.3375,467,"LANGRES"
7288,47.2489,5.9889,310,"BESANCON"
7291,47.3686,7.0189,913,"MONTACY-RADAR"
7292,47.7869,6.3639,274,"LUXEUIL"
7295,47.6333,6.8833,424,"BELFORT"
7296,47.5917,6.8369,402,"DORANS"
7299,47.6142,7.5103,273,"BALE-MULHOUSE"
7300,46.6936,-2.3303,32,"L ILE D YEU"
7306,46.7,-1.3789,91,"LA ROCHE-SUR-YON"
7314,46.0469,-1.4117,23,"POINTE DE CHASSIRON"
7315,46.15,-1.15,10,"LA ROCHELLE"
7316,46.1781,-1.1931,20,"LA ROCHELLE AEROPORT ILE DE RE"
7330,46.3156,-0.4,61,"NIORT"
7335,46.5939,0.3142,120,"POITIERS-BIARD"
7336,46.6986,0.0656,159,"CHERVES RADAR"
7354,46.8697,1.7411,157,"CHATEAUROUX DEOLS"
7360,46.1608,1.8672,553,"GUERET-GRANCHER"
7361,46.1753,1.9506,366,"GUERET ST LAURENT"
7374,46.1667,3.3986,251,"VICHY-CHARMEIL"
7379,46.4119,4.0247,244,"SAINT-YAN"
7381,46.0678,4.4453,908,"SAINT NIZIER-RADAR"
7385,46.2967,4.7986,217,"MACON"
7386,47.0439,5.4272,195,"DOLE-TAVAUX"
7390,46.6833,5.5167,280,"LONS-LE-SAUNIER"
7412,45.665,-0.3158,31,"COGNAC"
7420,45.7281,-0.2206,131,"CHAMPNIERS"
7434,45.8611,1.175,403,"LIMOGES-BELLEGARDE"
7436,45.1044,1.3697,351,"GREZES-RADAR"
7438,45.1481,1.4744,117,"BRIVE"
7460,45.7869,3.1494,326,"CLERMONT-FERRAND"
7461,45.2892,3.7094,1115,"SEMBADEL-RADAR"
7469,45.9333,6.8833,1037,"CHAMONIX"
7471,45.0744,3.7639,833,"LE PUY-LOUDES"
7475,45.5331,4.2933,402,"ST-ETIENNE BOUTHEON"
7480,45.7261,4.9378,198,"LYON-BRON"
7481,45.7264,5.0778,240,"LYON-ST EXUPERY"
7482,45.9764,5.3294,252,"AMBERIEU"
7486,45.3639,5.3133,386,"GRENOBLE-ST-GEOIRS"
7487,45.2172,5.8486,220,"GRENOBLE-LVD"
7490,45.9297,6.1058,459,"ANNECY-MEYTHET"
7491,45.6367,5.8831,235,"CHAMBERY-AIX-LES-BAINS"
7497,45.6128,6.7633,868,"BOURG ST-MAURICE"
7500,44.6317,-1.2483,28,"LEGE-CAP FERRET"
7502,44.53,-1.13,24,"CAZAUX"
7503,44.4317,-1.2475,39,"BISCAROSSE"
7510,44.8308,-0.6914,54,"BORDEAUX MERIGNAC"
7524,44.1722,0.5947,69,"AGEN"
7530,44.8231,0.5242,52,"BERGERAC"
7535,44.745,1.3961,261,"GOURDON"
7540,44.0281,1.3767,107,"MONTAUBAN"
7549,44.8986,2.4211,640,"AURILLAC"
7552,44.4103,2.4825,579,"SALLES LA SOURCE"
7554,44.5336,3.455,934,"MENDE"
7555,44.5,3.5333,1020,"MENDE-BRENOUX"
7558,44.1186,3.0194,716,"MILLAU"
7560,44.1214,3.5814,1564,"MONT AIGOUAL"
7563,43.9114,4.9028,48,"AVIGNON"
7569,44.3231,4.7622,309,"BOLLENE-RADAR"
7570,44.5383,4.3672,280,"LANAS SYN"
7577,44.5811,4.7331,74,"MONTELIMAR"
7579,44.1447,4.8611,55,"ORANGE"
7586,44.0831,5.0592,106,"CARPENTRAS"
7588,44.0622,5.9897,461,"ST-AUBAN-SUR-DURANCE"
7591,44.5656,6.5022,877,"EMBRUN"
7600,43.3944,-1.6867,43,"POINTE DE SOCOA"
7602,43.4694,-1.5342,71,"BIARRITZ-ANGLET"
7603,43.6897,-1.07,34,"DAX"
7606,43.6244,-0.6094,126,"MOMUY RADAR"
7607,43.91,-0.5,59,"MONT-DE-MARSAN"
7610,43.385,-0.4164,183,"PAU-UZEIN"
7621,43.1881,0,364,"TARBES-OSSUN"
7622,43.6889,0.6014,128,"AUCH"
7627,43.0053,1.1067,411,"SAINT GIRONS"
7628,43.4514,1.2619,190,"MURET-LHERM"
7629,43.5744,1.3764,158,"TOULOUSE RADAR"
7630,43.6211,1.3789,150,"TOULOUSE BLAGNAC"
7631,43.53,1.37,166,"TOULOUSE FRANCAZAL"
7632,43.9147,2.1164,171,"ALBI"
7635,43.2153,2.2956,130,"CARCASSONNE"
7637,43.9906,2.6097,667,"MONTCLAR RADAR"
7638,43.3219,3.35,16,"BEZIERS-VIAS"
7641,43.3983,3.6922,79,"SETE"
7643,43.5769,3.9631,8,"MONTPELLIER"
7645,43.8569,4.4064,62,"NIMES-COURBESSAC"
7646,43.7581,4.4119,105,"NIMES GARONS"
7647,43.5231,4.9222,24,"ISTRES"
7648,43.6036,5.1083,59,"SALON DE PROVENCE"
7650,43.4378,5.2267,32,"MARIGNANE"
7658,43.8061,4.5028,71,"NIMES-RADAR"
7661,43.0797,5.9414,134,"CAP CEPET"
7666,42.9183,3.0617,40,"LEUCATE"
7667,43.0944,6.1464,4,"HYERES"
7670,43,6.23,147,"PORQUEROLLES"
7671,43.2164,6.3728,641,"COLLOBRIERES-RADAR"
7675,43.3831,6.3864,82,"LE LUC"
7684,43.5458,6.9539,4,"CANNES"
7690,43.6489,7.2089,28,"NICE"
7745,42.9183,2.865,702,"OPOUL-RADAR"
7747,42.7372,2.8728,44,"PERPIGNAN"
7749,42.5167,3.135,87,"CAP BEAR"
7753,42.6331,8.9228,145,"ILE ROUSSE"
7754,42.5228,8.7911,58,"CALVI"
7761,41.9181,8.7928,9,"AJACCIO"
7765,41.9233,9.3967,17,"SOLENZARA"
7770,41.3747,9.1783,116,"CAP PERTUSATO"
7774,42.1297,9.4964,50,"ALERIA RADAR"
7775,42.2603,9.5411,74,"ALISTRO"
7780,41.4997,9.0997,23,"FIGARI"
7785,43.005,9.3586,113,"CAP CORSE"
7790,42.5406,9.4853,12,"BASTIA"
8001,43.3672,-8.4194,67,"LA CORUNA"
8002,43.3069,-8.3722,103,"LA CORUNA/ALVEDRO"
8007,43.1703,-8.5256,595,"CERCEDA"
8008,43.1153,-7.4561,446,"LUGO/ROZAS"
8011,43.5669,-6.0442,130,"ASTURIAS/AVILES"
8014,43.5608,-5.6986,6,"GIJON-MUSEL"
8015,43.3536,-5.8733,339,"OVIEDO"
8019,43.4636,-6.3006,923,"AGUION"
8021,43.4292,-3.8314,1,"SANTANDER/PARAYAS"
8023,43.4917,-3.7997,59,"SANTANDER"
8025,43.2981,-2.9058,39,"BILBAO/AEROPUERTO"
8027,43.3075,-2.0394,259,"SAN SEBASTIAN/IGUELDO"
8029,43.3606,-1.7872,8,"SAN SEBASTIAN/FUENTERRABIA"
8042,42.8878,-8.4108,367,"SANTIAGO/LABACOLLA"
8044,42.44,-8.6164,108,"PONTEVEDRA"
8045,42.2394,-8.6239,258,"VIGO/PEINADOR"
8046,42.2333,-8.75,85,"VIGO"
8048,42.3278,-7.8603,147,"ORENSE"
8053,42.5639,-6.6,550,"PONFERRADA"
8055,42.5889,-5.6494,914,"LEON/VIRGEN DEL CAMINO"
8072,41.9969,-4.6014,874,"PALENCIA-AUTILLA PINO"
8075,42.3561,-3.6214,892,"BURGOS/VILLAFRIA"
8080,42.8719,-2.7333,510,"VITORIA"
8081,43.4044,-2.8408,576,"BAQUIO"
8084,42.4522,-2.3311,363,"LOGRONO/AGONCILLO"
8085,42.7769,-1.65,453,"PAMPLONA/NOAIN"
8087,42.195,-1.4725,295,"BARDENAS REALES"
8094,42.0833,-0.3264,554,"HUESCA/PIRINEOS"
8112,42.2064,0.8664,800,"TALARN"
8117,42.3339,1.9375,1702,"LA MOLINA"
8130,41.5167,-5.7336,667,"ZAMORA"
8140,41.7,-4.85,846,"VALLADOLID/VILLANUBLA"
8141,41.65,-4.7667,735,"VALLADOLID"
8148,41.7667,-2.4667,1082,"SORIA"
8157,41.1147,-1.4108,779,"DAROCA"
8160,41.6619,-1.0081,258,"ZARAGOZA/AEROPUERTO"
8162,41.735,-0.5447,820,"PERDIGUERA"
8171,41.6258,0.595,199,"LLEIDA"
8175,41.1497,1.1789,76,"REUS/AEROPUERTO"
8179,41.4094,1.8861,651,"CORBERA"
8181,41.2928,2.07,5,"BARCELONA/AEROPUERTO"
8184,41.9117,2.7633,129,"GIRONA/COSTA BRAVA"
8190,41.3844,2.1181,91,"BARCELONA SERVEI"
8202,40.9594,-5.4983,794,"SALAMANCA/MATACAN"
8210,40.65,-4.6786,1132,"AVILA"
8213,40.9478,-4.1272,1005,"SEGOVIA"
8215,40.7806,-4.0103,1888,"NAVACERRADA"
8219,40.6986,-3.7644,998,"COLMENAR VIEJO/FAMET"
8220,40.4528,-3.7242,669,"MADRID/C. UNIVERSITARIA"
8221,40.4667,-3.5556,582,"MADRID/BARAJAS"
8222,40.4111,-3.6781,667,"MADRID, RETIRO"
8223,40.3778,-3.7892,687,"MADRID/CUATRO VIENTOS"
8224,40.3,-3.7225,617,"MADRID/GETAFE"
8226,40.6611,-3.1742,640,"GUADALAJARA"
8227,40.4833,-3.4503,612,"MADRID/TORREJON"
8228,40.1769,-3.7125,704,"TORREJON DE VELASCO"
8231,40.0667,-2.1381,946,"CUENCA"
8232,40.8444,-1.8853,1063,"MOLINA DE ARAGON"
8233,40.9256,-1.295,889,"CALAMOCHA"
8235,40.3517,-1.1228,902,"TERUEL"
8238,40.8206,0.4914,50,"TORTOSA"
8261,39.4722,-6.3394,405,"CACERES"
8262,39.43,-6.2839,652,"SIERRA DE FUENTES"
8272,39.8847,-4.0494,516,"TOLEDO"
8280,38.9522,-1.8631,704,"ALBACETE/LOS LLANOS"
8284,39.4867,-0.4733,62,"VALENCIA/AEROPUERTO"
8285,39.4806,-0.3664,11,"VALENCIA"
8286,39.95,-0.0714,35,"CASTELLON"
8289,39.1775,-0.2497,234,"CULLERA"
8301,39.5556,2.6264,6,"PALMA DE MALLORCA"
8302,39.61,2.71,41,"MALLORCA-SON BONET"
8306,39.5608,2.7367,5,"PALMA DE MALLORCA/SON SAN JUAN"
8308,39.3808,2.7861,113,"LLUCMAYOR"
8314,39.8547,4.2156,86,"MENORCA/MAHON"
8330,38.8833,-6.8292,192,"BADAJOZ/TALAVERA LA REAL"
8335,38.5,-5.1292,541,"HINOJOSA DEL DUQUE"
8348,38.9894,-3.9197,629,"CIUDAD REAL"
8349,38.9508,-3.7403,622,"ALMAGRO-FAMET"
8359,38.3667,-0.4944,82,"ALICANTE"
8360,38.2828,-0.5708,31,"ALICANTE/EL ALTET"
8364,38.2656,-1.1886,1261,"FORTUNA"
8373,38.8764,1.3844,17,"IBIZA/ES CODOLA"
8383,37.28,-6.9097,20,"HUELVA"
8386,37.6886,-6.3331,517,"CASTILLO LAS GUARDAS"
8391,37.4167,-5.8792,31,"SEVILLA/SAN PABLO"
8397,37.1583,-5.6158,88,"MORON DE LA FRONTERA"
8410,37.8442,-4.8461,92,"CORDOBA/AEROPUERTO"
8417,37.7778,-3.8075,580,"JAEN"
8419,37.1897,-3.7894,570,"GRANADA/AEROPUERTO"
8420,37.1372,-3.6314,692,"GRANADA/BASE AEREA"
8429,37.9578,-1.2297,75,"MURCIA/AL CANTARILLA"
8430,38.0028,-1.1694,62,"MURCIA"
8433,37.7889,-0.8033,3,"MURCIA/SAN JAVIER"
8449,36.6389,-6.3317,23,"ROTA"
8451,36.7506,-6.0558,28,"JEREZ DE LA FRONTERA AEROPUERTO"
8452,36.5011,-6.2567,9,"CADIZ, OBS."
8458,36.0153,-5.5975,25,"TARIFA"
8475,36.6147,-4.6581,1147,"ALHAURIN EL GRANDE"
8482,36.6769,-4.4906,7,"MALAGA/AEROPUERTO"
8487,36.8464,-2.3569,21,"ALMERIA/AEROPUERTO"
8489,36.8336,-2.0808,486,"NIJAR"
8495,36.1519,-5.3494,5,"GIBRALTAR"
8501,39.45,-31.1333,29,"FLORES (ACORES)"
8502,39.6667,-31.1167,26,"CORVO (ACORES)"
8505,38.5167,-28.7167,41,"HORTA/CASTELO BRANCO (ACORES)"
8506,38.5167,-28.6333,62,"HORTA (ACORES)"
8507,39.1,-28.0333,28,"GRACIOSA/AERODROME"
8508,38.7678,-27.0856,72,"LAJES (ACORES)"
8509,38.7667,-27.1,54,"LAJES (ACORES)"
8511,38.6667,-27.2167,76,"ANGRA DO HEROISMO (ACORES)"
8512,37.7333,-25.7,72,"PONTA DELGADA/NORDELA (ACORES)"
8513,37.75,-25.6667,36,"PONTA DELGADA/OBS. (ACORES)"
8515,36.9667,-25.1667,100,"SANTA MARIA (ACORES)"
8521,32.6833,-16.7667,49,"FUNCHAL/S.CATARINA"
8522,32.6333,-16.9,56,"FUNCHAL"
8524,33.0667,-16.35,82,"PORTO SANTO"
8530,39.35,-9.4,34,"CABO CARVOEIRO"
8532,38.8333,-9.3333,130,"SINTRA/GRANJA"
8533,37,-8.95,26,"SAGRES"
8534,38.7,-9.0333,11,"MONTIJO"
8535,38.7167,-9.15,95,"LISBOA/GEOF"
8536,38.7667,-9.1333,123,"LISBOA/PORTELA"
8537,38.8833,-9.0333,3,"ALVERCA"
8538,37,-8.95,25,"SAGRES"
8539,39.1167,-8.9833,49,"OTA"
8540,39.8333,-8.8833,54,"MONTE REAL"
8541,37.95,-8.8667,103,"SINES/MONTES CHAOS"
8543,41.7,-8.8,18,"VIANA DO CASTELO"
8544,40.9167,-8.6333,22,"OVAR/MACEDA"
8545,41.2333,-8.6833,77,"PORTO/PEDRAS RUBRAS"
8546,41.1333,-8.6,100,"PORTO/SERRA DO PILAR"
8548,40.15,-8.4667,179,"COIMBRA/CERNACHE"
8550,39.0667,-8.4,167,"CORUCHE, CRUZ DO LEAO"
8551,41.6333,-8.8,48,"VIANA DO CASTELO-CHAFE"
8552,39.4833,-8.4333,80,"TANCOS"
8553,37.3,-7.95,587,"LOULE, CAVALOS DO CALDEIRAO"
8554,37.0167,-7.9667,8,"FARO/AEROPORTO"
8555,37.0167,-7.9167,8,"FARO/CIDADE"
8557,38.5667,-7.9,321,"EVORA"
8558,38.5333,-7.9,246,"EVORA/C. COORD"
8560,40.7167,-7.8833,644,"VISEU"
8561,38.0667,-7.9167,203,"BEJA/B. AEREA"
8562,38.0167,-7.8667,247,"BEJA"
8567,41.2667,-7.7167,562,"VILA REAL"
8568,40.4167,-7.55,1388,"PENHAS DOURADAS"
8570,39.8333,-7.4833,384,"CASTELO BRANCO"
8571,39.2833,-7.4167,590,"PORTALEGRE"
8575,41.8,-6.7333,692,"BRAGANCA"
8579,38.7667,-9.1333,105,"LISBOA/GAGO COUTINHO"
8583,16.8336,-25.0547,17.68,"MINDELO"
8589,14.9411,-23.4847,95.1,"PRAIA"
8594,16.7419,-22.9489,55.74,"SAL"
8911,42.7658,-0.6261,1540,"ARAGUES DEL PUERTO, LIZARRA"
8912,42.9558,-0.8,1591,"ISABA,  EL FERIAL"
8913,42.8989,-0.7978,1340,"ANSO, REFUGIO DE LINZA"
8914,42.7853,-0.5325,1560,"CANDANCHU, ETUKSA"
8917,42.7644,-0.3894,1780,"SALLENT DE GALLEGO,  FURCO"
8918,42.7769,-0.3653,1560,"SALLENT DE GALLEGO,  FORMIGAL"
8920,42.8189,-0.2864,2180,"SALLENT DE GALLEGO,  RESPOMUSO"
8922,42.7631,-0.2347,1660,"PANTICOSA, REFUGIO CASA PIEDRA"
8924,42.7044,-0.2756,1830,"PANTICOSA, ESQUI"
8925,42.6281,0.46,2150,"ERISTE, REFUGIO ANGEL ORUS"
8926,42.6636,0.0139,2215,"FANLO, REFUGIO DE GORIZ"
8927,42.6689,0.0986,1350,"BIELSA, REFUGIO DE PINETA"
8928,42.6753,0.4814,1890,"BENASQUE, REFUGIO DE ESTOS"
8930,42.5661,0.5453,2020,"CERLER, ESQU COTA 2000"
8932,42.4783,0.8678,2280,"BOI TAHULL"
8934,42.7,0.95,1870,"BAQUEIRA"
8936,42.4086,1.1292,680,"SORT"
8938,42.4231,1.2106,2080,"PORT AINE"
8940,42.6375,1.2519,1100,"TAVESCAN"
8942,42.1722,1.5597,1750,"PORT DEL COMTE"
8944,42.3333,1.9,2150,"MASELLA"
8946,42.3939,2.1556,1967,"NURIA"
8948,42.435,2.2661,2160,"VALLTER 2000"
8958,40.1169,-1.0356,1520,"CAMARENA DE LA SIERRA"
8960,40.3817,-0.63,1975,"VALDELINARES, ESQUI"
10004,54.1667,6.35,0,"UFS TW EMS"
10007,54.1833,7.4333,0,"UFS DEUTSCHE BUCHT"
10015,54.1764,7.8931,8,"HELGOLAND"
10018,54.9167,8.35,17,"WESTERLAND/SYLT"
10020,55.0125,8.4125,26.4,"LIST/SYLT"
10022,54.7925,8.9492,7.8,"LECK"
10028,54.3297,8.6028,11,"ST PETER-ORDING"
10031,54.7833,9.3833,43,"FLENSBURG-SCHAEFERHAUS"
10033,54.8489,9.5081,33.3,"GLUECKSBURG-MEIERWIK"
10034,54.63,9.35,19,"EGGEBEK"
10035,54.5289,9.5494,43,"SCHLESWIG"
10037,54.4567,9.5206,25.73,"SCHLESWIG-JAGEL"
10038,54.3128,9.5394,17.84,"HOHN"
10042,54.6411,10.0247,3,"SCHONHAGEN (OSTSEEBAD)"
10043,54.6,11.15,2,"FEHMARNBELT"
10044,54.5003,10.2747,26,"LEUCHTTURM KIEL"
10046,54.3758,10.1439,31,"KIEL-HOLTENAU"
10055,54.5297,11.0619,8.5,"FEHMARN"
10067,54.5,11.2333,12,"MARIENLEUCHTE"
10091,54.6817,13.4367,41.7,"ARKONA"
10093,54.3656,13.4786,40.5,"PUTBUS"
10097,54.2458,13.9125,11.18,"GREIFSWALDER OIE"
10113,53.7139,7.1525,15.6,"NORDERNEY"
10122,53.5322,7.8806,20.71,"JEVER"
10124,53.8667,8.1333,30.5,"LEUCHTTURM ALTE WESER"
10126,53.55,7.6667,11.8,"WITTMUNDHAVEN"
10127,53.5333,8.1667,10.9,"WILHELMSHAVEN (FLUGPLATZ)"
10129,53.5347,8.5772,10.5,"BREMERHAVEN"
10130,54.0711,9.0114,4.5,"ELPERSBUETTEL"
10131,53.8731,8.7069,12,"CUXHAVEN"
10136,53.7647,8.6575,32.49,"NORDHOLZ (FLUGPLATZ)"
10139,53.4475,9.1403,11.5,"BREMERVOERDE"
10141,53.65,10.1167,49,"HAMBURG-SASEL"
10142,53.9897,9.5697,25.5,"ITZEHOE"
10146,53.7347,9.8786,14,"QUICKBORN"
10147,53.635,9.99,15,"HAMBURG-FUHLSBUETTEL"
10149,53.5333,9.8333,13,"HAMBURG-FINKENWERDER"
10150,54.1667,10.3539,27.9,"DOERNICK"
10152,54.0908,10.8786,2,"PELZERHAKEN"
10156,53.8106,10.7067,17.5,"LUEBECK-BLANKENSEE"
10157,53.8,10.7167,21,"LUEBECK-BLANKENSEE"
10161,54.0044,11.1922,16,"BOLTENHAGEN"
10162,53.6442,11.3886,67.7,"SCHWERIN"
10163,53.4167,11.7833,44,"PARCHIM"
10168,53.6072,12.1042,59,"GOLDBERG"
10169,54.1764,12.0592,1.2,"ROSTOCK (RADAR)"
10170,54.1817,12.0822,12.9,"ROSTOCK-WARNEMUENDE"
10172,53.9167,12.2833,59,"LAAGE (FLUGPLATZ)"
10177,53.77,12.62,50,"TETEROW"
10180,54.3406,12.7108,4,"BARTH"
10184,54.0978,13.4075,6.3,"GREIFSWALD"
10192,53.8833,14.15,28,"HERINGSDORF"
10193,53.7461,14.0697,2.2,"UECKERMUENDE"
10200,53.3894,7.2269,-1.6,"EMDEN-FLUGPLATZ"
10204,53.3394,7.025,2,"EMDEN-KNOCK (RADAR)"
10210,53.0644,7.9022,7.09,""
10215,53.1781,8.1819,12.4,"OLDENBURG"
10222,53.15,8.6167,30,"LEMWERDER"
10224,53.0464,8.7994,5.2,"BREMEN"
10235,52.9617,9.7967,77.1,"SOLTAU"
10238,52.8167,9.9333,77.56,"BERGEN"
10246,52.9194,10.1839,87.87,"FASSBERG"
10249,53.3931,10.6894,45.9,"BOIZENBURG"
10253,52.9739,11.1392,18,"LUECHOW"
10261,52.8928,11.7306,23.2,"SEEHAUSEN"
10264,53.3244,11.9361,87.3,"MARNITZ"
10267,52.9383,12.4108,39.9,"KYRITZ"
10268,53.5214,12.6694,71,"WAREN"
10270,52.9053,12.8086,45,"NEURUPPIN"
10277,53.15,13.03,62,"NEUGLOBSOW"
10280,53.55,13.2,80,"NEUBRANDENBURG"
10281,53.6022,13.3061,93.25,"TROLLENHAGEN"
10282,53.3175,13.4175,116.2,"FELDBERG/MECKLENBURG"
10289,53.3169,13.9361,57,"GRUENOW"
10291,53.0331,13.9931,55.4,"ANGERMUENDE"
10304,52.7333,7.3333,41.1,"MEPPEN"
10305,52.5194,7.3081,26.1,"LINGEN"
10306,52.2892,7.3864,48.66,"RHEINE-BENTLAGE"
10309,52.0828,6.9417,46.9,"AHAUS"
10312,52.3183,8.1706,104,"BELM"
10314,52.3333,7.5333,52,"HOPSTEN"
10315,52.1353,7.7,52.5,"MUENSTER/OSNABRUECK"
10317,52.25,8.05,97,"OSNABRUECK"
10320,51.9297,8.3003,71.6,"GUETERSLOH"
10321,52.5903,8.3464,43,"DIEPHOLZ"
10325,52.1056,8.7531,136.5,"BAD SALZUFLEN"
10334,52.4581,9.4283,69.23,"WUNSTORF"
10335,52.2819,9.0878,76.58,"BUECKEBURG"
10338,52.4658,9.6797,59.4,"HANNOVER"
10343,52.5953,10.0281,52.55,"CELLE"
10346,52.3167,10.55,100,"BRAUNSCHWEIG-WAGGUM"
10348,52.2931,10.4486,87.5,"BRAUNSCHWEIG"
10356,52.1617,11.1767,162.8,"UMMENDORF"
10359,52.5144,11.3978,48,"GARDELEGEN"
10361,52.1033,11.5844,85,"MAGDEBURG"
10362,52.0667,11.6167,81,"MAGDEBURG"
10365,52.3892,12.1636,37.9,"GENTHIN"
10368,52.1222,12.46,187.9,"WIESENBURG"
10376,52.0622,13.5028,55.6,"BARUTH"
10379,52.3861,13.0639,99.6,"POTSDAM"
10381,52.4667,13.3,70,"BERLIN-DAHLEM"
10382,52.5656,13.3108,36.8,"BERLIN-TEGEL"
10384,52.4686,13.4039,49,"BERLIN-TEMPELHOF"
10385,52.3822,13.5325,50.3,"BERLIN-SCHOENEFELD"
10389,52.5167,13.4167,83,"BERLIN-ALEXANDERPLATZ"
10393,52.2097,14.1203,103.8,"LINDENBERG"
10394,52.2167,14.1167,101,"LINDENBERG (WP)"
10396,52.5483,14.5475,13.1,"MANSCHNOW"
10400,51.2975,6.7692,40.6,"DUESSELDORF"
10403,51.2333,6.5,38,"MOENCHENGLADBACH"
10404,51.7472,6.2656,42.8,"KALKAR"
10406,51.83,6.53,24,"BOCHOLT"
10410,51.4056,6.9686,149.8,"ESSEN-BREDENEY"
10412,51.4064,6.9647,158,"ESSEN (RADAR)"
10416,51.5167,7.6167,148,"DORTMUND/WICKEDE"
10418,51.2467,7.6433,389.4,"LUEDENSCHEID"
10424,51.5778,7.8889,86.2,"WERL"
10426,51.6167,8.6167,239,"PADERBORN/LIPPSTADT"
10427,51.1817,8.49,858.5,"KAHLER ASTEN"
10430,51.7869,8.8397,158.1,"BAD LIPPSPRINGE"
10433,51.8678,9.2722,259.2,"LUEGDE-PAENBRUCH"
10435,51.5053,9.1128,236.5,"WARBURG"
10436,51.4,9.3833,283,"KASSEL/CALDEN"
10437,51.1333,9.2833,223,"FRITZLAR-KASSELER WARTE"
10438,51.2978,9.4436,231.7,"KASSEL"
10439,51.1194,9.2836,181.41,"FRITZLAR (FLUGPLATZ)"
10440,51.3122,8.8031,551,"FLECHTDORF (RADAR)"
10442,51.9672,9.8044,145.2,"ALFELD"
10444,51.5017,9.9528,168.3,"GOETTINGEN"
10449,51.3853,10.3019,353.4,"LEINEFELDE"
10452,51.725,10.6039,608.5,"BRAUNLAGE"
10453,51.8,10.6194,1152.5,"BROCKEN"
10454,51.8478,10.7697,239.7,"WERNIGERODE"
10458,51.6533,11.1375,405.3,"HARZGERODE"
10460,51.3756,11.2931,165.5,"ARTERN"
10466,51.5147,11.9506,95.8,"HALLE-KROELLWITZ"
10468,51.55,12.0667,106,"OPPIN"
10469,51.4361,12.2414,135.5,"LEIPZIG/HALLE"
10471,51.3164,12.4475,138,"LEIPZIG-HOLZHAUSEN"
10474,51.8903,12.6464,105.8,"WITTENBERG"
10476,51.7686,13.1683,101.64,"HOLZDORF (FLUGPLATZ)"
10480,51.2972,13.0947,150.3,"OSCHATZ"
10488,51.1292,13.7561,232.4,"DRESDEN-KLOTZSCHE"
10490,51.6467,13.5767,97.8,"DOBERLUG-KIRCHHAIN"
10495,51.4506,14.2544,116.13,"HOYERSWERDA"
10496,51.7775,14.3186,69.5,"COTTBUS"
10499,51.1633,14.9531,239.7,"GOERLITZ"
10500,50.9667,6.05,97.9,"GEILENKIRCHEN"
10501,50.7833,6.1,205,"AACHEN"
10502,50.8289,6.6594,133.91,"NOERVENICH (FLUGPLATZ)"
10505,50.7994,6.025,232.54,"AACHEN-ORSBACH"
10506,50.3611,6.8703,488.17,"NUERBURG-BARWEILER"
10507,50.4,6.5333,581,"DAHLEMER BINZ"
10513,50.8661,7.1586,99.5,"KOELN/BONN"
10514,50.3667,7.3167,190,"MENDIG"
10515,50.4167,7.5833,129,"BENDORF"
10516,50.3733,7.5844,97.64,"KOBLENZ (FALKENSTEIN-KASERNE)"
10517,50.7,7.15,64,"BONN-FRIESDORF"
10518,50.7,7.0333,160,"BONN-HARDTHOEHE"
10519,50.7364,7.1939,160.4,"BONN-ROLEBER"
10520,50.425,7.4211,76.4,"ANDERNACH"
10526,50.6633,7.9597,555.4,"BAD MARIENBERG"
10528,50.7167,8.0833,617,"SIEGERLAND"
10532,50.6011,8.6508,204.6,"GIESSEN-WETTENBERG"
10534,50.5086,9.2247,744.1,"HOHERODSKOPF-VOGELSBERG"
10535,50.8167,9.1333,350,"WAHLEN"
10537,50.7531,9.0236,351.65,"NEU ULRICHSTEIN"
10540,51.0025,10.3636,313.8,"EISENACH"
10542,50.8531,9.7386,270.8,"BAD HERSFELD"
10544,50.4978,9.9439,925.4,"WASSERKUPPE"
10548,50.5625,10.3772,452.6,"MEININGEN"
10552,50.6558,10.7711,939.1,"SCHMUECKE"
10554,50.9847,10.9631,322,"ERFURT-WEIMAR"
10555,50.9833,11.3167,268,"WEIMAR"
10557,50.5014,11.1358,851,"NEUHAUS A.R."
10558,50.3833,11.1833,630,"SONNEBERG-NEUFANG"
10564,50.5706,11.8056,501.9,"SCHLEIZ"
10565,51.0886,11.9314,245.8,"OSTERFELD"
10567,50.8822,12.13,311.7,"GERA-LEUMNITZ"
10569,50.4831,12.1317,388.8,"PLAUEN"
10571,50.9667,12.5,192,"ALTENBURG/NOBITZ"
10574,50.4322,12.6128,899.4,"CARLSFELD"
10575,50.6,12.7167,397,"AUE"
10577,50.7925,12.8736,419.7,"CHEMNITZ"
10578,50.4294,12.9553,1214.6,"FICHTELBERG"
10579,50.6522,13.1486,640.4,"MARIENBERG"
10582,50.7328,13.7531,882,"ZINNWALD-GEORGENFELD"
10591,50.9397,14.2111,319.3,"LICHTENHAIN-MITTELNDORF"
10605,50.1106,6.5497,551,"NEUHEILENBACH (RADAR)"
10607,49.9833,6.7,356,"SPANGDAHLEM"
10609,49.7492,6.6592,273.2,"TRIER-PETRISBERG"
10613,50.1739,7.0633,485.84,"BUECHEL (FLUGPLATZ)"
10614,49.4333,7.6,238,"RAMSTEIN"
10615,49.7631,7.0556,481.7,"DEUSELBACH"
10616,49.9475,7.2647,503.1,"HAHN"
10618,49.7,7.3333,377,"IDAR-OBERSTEIN"
10628,49.985,7.9547,111.2,"GEISENHEIM"
10629,49.9858,8.7139,198,"OFFENTHAL (RADAR)"
10633,50.0833,8.2667,143,"WIESBADEN"
10635,50.2225,8.4481,826.4,"KLEINER FELDBERG/TAUNUS"
10637,50.0464,8.5986,113,"FRANKFURT/MAIN"
10639,50.0167,8.6667,135,"LANGEN"
10640,50.1167,8.7333,112,"OFFENBACH/M (LABOR)"
10641,50.0894,8.7864,120.5,"OFFENBACH-WETTERPARK"
10642,50.1667,8.9667,114,"HANAU"
10645,49.9,9.43,581,"BREITSOL"
10646,50.0094,9.425,340.4,"NEUHUTTEN-SPESSART"
10648,49.7189,9.1008,454.84,"MICHELSTADT-VIELBRUNN"
10653,49.65,9.9667,298,"GIEBELSTADT"
10655,49.7714,9.9589,272,"WUERZBURG"
10658,50.2256,10.0803,281.7,"BAD KISSINGEN"
10671,50.3081,10.9694,345.3,"LAUTERTAL-OBERLAUTER"
10675,49.8753,10.9219,240.9,"BAMBERG"
10677,49.9833,11.6333,498,"BAYREUTH"
10684,50.2833,11.85,588,"HOF"
10685,50.3133,11.8775,566.8,"HOF"
10686,50.0317,11.9744,623,"WUNSIEDEL-SCHONBRUNN"
10687,49.7,11.95,415,"GRAFENWOEHR"
10688,49.6722,12.1858,436.5,"WEIDEN"
10704,49.2653,6.6878,363,"BERUS"
10706,49.4747,7.0392,387,"THOLEY"
10708,49.2142,7.1083,320.2,"SAARBRUECKEN/ENSHEIM"
10714,49.2167,7.4,353,"ZWEIBRUECKEN"
10722,48.7833,8.0833,135,"KARLSRUHE/BADEN-BADEN"
10724,49.3769,8.1225,558.52,"WEINBIET"
10727,49.0333,8.3667,145,"KARLSRUHE"
10728,49.5667,8.4667,95,"COLEMAN (MANNHEIM)"
10729,49.51,8.555,99.98,"MANNHEIM"
10730,49.4667,8.5167,106,"MANNHEIM-NEUOSTHEIM"
10731,48.9736,8.3311,117.97,"RHEINSTETTEN"
10733,49.2953,8.9064,239.73,"WAIBSTADT"
10735,49.25,8.8833,169,"SINSHEIM"
10736,48.9731,8.8744,243.41,"MUEHLACKER"
10738,48.6892,9.2253,391.6,"STUTTGART-ECHTERDINGEN"
10739,48.8292,9.2011,317.5,"STUTTGART/SCHNARRENBERG"
10742,49.2081,9.5186,274.44,"OEHRINGEN"
10743,49.3992,9.9653,472.78,"NIEDERSTETTEN"
10747,48.9181,9.6883,489.87,"KAISERSBACH-CRONHUETTE"
10752,49.4667,10.3833,347,"ILLESHEIM"
10755,49.3167,10.6333,476,"ANSBACH"
10756,49.1633,10.3672,476.5,"FEUCHTWANGEN-HEILBRONN"
10761,49.0203,10.9617,423.6,"WEISSENBURG"
10763,49.5044,11.0569,317.6,"NUERNBERG"
10765,49.2161,11.1025,395.06,"ROTH"
10771,49.4289,11.9022,418.08,"KUEMMERSBRUCK"
10775,49.2167,11.8333,442,"HOHENFELS"
10776,49.0436,12.1033,369.6,"REGENSBURG"
10777,48.9489,11.43,537.6,"GELBELSEE"
10780,49.5414,12.4042,771.2,"EISBERG (RADAR)"
10782,49.3922,12.6853,499.6,"WALDMUNCHEN"
10788,48.8286,12.5603,359.4,"STRAUBING"
10791,49.1139,13.1353,1445.8,"GROSSER ARBER"
10796,49.0292,13.2403,616,"ZWIESEL"
10803,48.0242,7.8353,237.56,"FREIBURG"
10805,48.3658,7.8289,157.16,"LAHR"
10815,48.4547,8.41,800.69,"FREUDENSTADT"
10818,48.1064,8.7558,974.57,"KLIPPENECK"
10827,48.1847,8.9925,932.62,"MESSSTETTEN"
10828,48.1,9.25,646,"SIGMARINGEN"
10832,48.5861,9.7839,730.5,"TUERKHEIM (RADAR)"
10836,48.6667,9.8658,738.61,"STOETTEN"
10837,48.2183,9.9097,549.76,"LAUPHEIM"
10838,48.3847,9.9539,570.7,"ULM"
10850,48.7928,10.7075,503,"HARBURG"
10852,48.4261,10.9431,476.7,"AUGSBURG"
10853,48.7094,11.21,387.25,"NEUBURG/DONAU (FLUGPLATZ)"
10856,48.1864,10.8506,562.01,"LECHFELD"
10857,48.0767,10.9147,627.67,"LANDSBERG (FLUGPLATZ)"
10858,48.2,11.27,535,"---"
10859,48.0833,11.2833,600,"OBERPFAFFENHOFEN"
10860,48.7156,11.5336,366.03,"INGOLSTADT (FLUGPLATZ)"
10863,48.4033,11.6958,478.7,"WEIHENSTEPHAN-DURNAST"
10865,48.1642,11.5442,525.6,"MUENCHEN-STADT"
10868,48.25,11.55,489,"MUENCHEN-OBERSCHLEIBSHEIM"
10869,48.3167,11.95,467.74,"ERDING"
10870,48.3486,11.8147,446.5,"MUENCHEN-FLUGHAFEN"
10871,48.3372,11.6128,489.4,"FUERHOLZEN (RADAR)"
10872,48.6606,12.5403,351.4,"GOTTFRIEDING"
10875,48.28,12.5039,406.7,"MUEHLDORF"
10895,48.5461,13.3547,477.1,"FURSTENZELL"
10906,47.9131,7.9078,1208,"SCHAUINSLAND/FREIBURG (CTBT)"
10908,47.8758,8.0047,1495.8,"FELDBERG/SCHWARZWALD"
10912,47.9667,8.5167,684,"DONAUESCHINGEN-VILLINGEN"
10929,47.6783,9.1911,444.42,"KONSTANZ"
10935,47.6667,9.5167,424,"FRIEDRICHSHAFEN"
10945,47.7964,10.0336,673.85,"LEUTKIRCH-HERLAZHOFEN"
10946,47.7244,10.3364,705.1,"KEMPTEN"
10948,47.3989,10.2769,807.1,"OBERSTDORF"
10954,47.8364,10.8722,756.67,"ALTENSTADT"
10961,47.4222,10.9867,2960.2,"ZUGSPITZE"
10962,47.8019,11.0119,985.5,"HOHENPEISSENBERG"
10963,47.4839,11.0636,720.2,"GARMISCH-PARTENKIRCHEN"
10980,47.7044,12.0133,1835,"WENDELSTEIN"
10982,47.8853,12.5419,552.5,"CHIEMING"
11001,48.1056,13.6708,618,"WOLFSEGG"
11004,48.3308,13.3758,351,"REICHERSBERG"
11008,48.5697,13.9942,602.4,"ROHRBACH"
11010,48.24,14.1911,313,"LINZ/HOERSCHING-FLUGHAFEN"
11012,48.055,14.1311,389.5,"KREMSMUENSTER"
11015,48.5061,14.5061,548,"FREISTADT"
11018,48.1081,14.8986,269,"AMSTETTEN"
11019,48.6908,15.3669,606.8,"ALLENTSTEIG"
11020,48.6178,15.2036,505.4,"STIFT ZWETTL"
11021,48.9547,15.0375,555,"LITSCHAU"
11022,48.7611,15.9417,320,"RETZ"
11023,48.5956,15.6678,272,"GARS AM KAMP"
11024,48.3344,15.3392,1000.2,"JAUERLING"
11025,48.7022,14.8986,569.9,"WEITRA"
11027,48.3975,16.1917,202,"STOCKERAU"
11028,48.1833,15.6167,284,"ST. POELTEN"
11030,48.3239,16.1181,176.8,"TULLN/LANGENLEBARN"
11031,48.1758,15.9353,490,"KOHLREITHBERG"
11032,48.6692,16.6375,194.3,"POYSDORF"
11034,48.1983,16.3669,177.3,"WIEN/INNERE STADT"
11035,48.2486,16.3564,200,"WIEN/HOHE WARTE"
11036,48.1108,16.5708,184,"WIEN/SCHWECHAT-FLUGHAFEN"
11037,48.1997,16.5592,152.8,"GROSSENZERSDORF"
11038,48.0739,16.5361,205,"RAUCHENWARTH BEI SCHWECHAT"
11040,48.1247,16.4192,200,"WIEN/UNTERLAA"
11051,48.2242,13.0281,390,"RANSHOFEN"
11052,48.0656,13.0625,550,"FELDKIRCHEN"
11053,48.2169,13.475,429,"RIED IM INNKREIS"
11055,48.4642,13.4344,312.3,"SCHAERDING"
11059,48.1628,14.0714,312.9,"WELS/SCHLEISSHEIM"
11060,48.2964,14.2856,262.1,"LINZ-STADT"
11070,48.4183,15.6214,203.1,"KREMS"
11075,48.4725,15.6975,208.9,"LANGENLOIS"
11078,48.0281,15.5875,695.6,"LILIENFELD/TARSCHBERG"
11080,48.2069,16.2294,227,"WIEN/MARIABRUNN"
11081,48.0114,16.2356,241.1,"BADEN"
11082,48.0403,16.2822,221.3,"GUMPOLDSKIRCHEN"
11083,48.5589,16.3717,458.1,"LEISER BERGE"
11085,48.3381,16.8314,145.6,"ZWERNDORF-MARCHEGG"
11090,48.2575,16.4333,161,"WIEN-DONAUFELD"
11101,47.5,9.7458,439,"BREGENZ"
11103,47.3833,9.7,418,"HOHENEMS/DORNBIRN FLUGFELD"
11105,47.2711,9.6097,435.9,"FELDKIRCH"
11109,47.1333,10.2703,1285,"ST. ANTON ARLBERG TUNNEL"
11110,47.1297,10.2303,2089.9,"GALZIG"
11111,47.5003,10.5058,1097.7,"TANNHEIM"
11112,47.1403,10.5636,806.5,"LANDECK"
11113,46.8911,10.4969,1341.3,"NAUDERS"
11119,47.3331,11.1753,1182,"SEEFELD"
11120,47.2575,11.3536,593,"INNSBRUCK-FLUGHAFEN"
11121,47.2575,11.3536,584,"INNSBRUCK-FLUGHAFEN (AUTOMAT)"
11124,47.1575,10.2114,2809,"VALLUGA (RADAR)"
11126,47.2094,11.4617,2252,"PATSCHERKOFEL"
11127,46.8667,11.0244,1939.3,"OBERGURGL"
11128,47.0075,11.5072,1639,"BRENNER"
11130,47.5753,12.1628,491.6,"KUFSTEIN"
11135,47.4192,12.3619,1763,"HAHNENKAMM/EHRENBACHHOEHE"
11136,47.2328,12.1825,1009,"KRIMML"
11137,47.4061,12.9,794.3,"MARIA ALM"
11138,47.1339,12.6256,2310,"RUDOLFSHUETTE-ALPINZENTRUM"
11140,47.5828,12.6969,624,"LOFER"
11141,47.4067,13.2211,547.6,"BISCHOFSHOFEN"
11142,47.3167,13.1833,647,"ST. JOHANN/PONGAU"
11143,47.3,12.7833,754,"ZELL AM SEE-FLUGFELD"
11144,47.3267,12.795,767,"ZELL AM SEE"
11146,47.0544,12.9581,3111,"SONNBLICK"
11147,47.3853,13.4561,859.7,"RADSTADT"
11148,47.0944,13.6228,1051.9,"ST. MICHAEL/LUNGAU"
11149,47.2486,13.5597,1743,"OBERTAUERN"
11150,47.8014,13.0017,450,"SALZBURG-FLUGHAFEN"
11152,47.9778,13.1069,503,"MATTSEE"
11153,47.8508,13.3472,482,"MONDSEE"
11154,47.9147,13.8075,425.4,"GMUNDEN"
11155,47.8178,13.7183,1621,"FEUERKOGEL"
11156,47.7167,13.6333,470,"BAD ISCHL"
11157,47.5325,14.1381,651.8,"AIGEN IM ENNSTAL"
11161,47.5225,14.9533,1211,"PRAEBICHL"
11164,47.0639,14.5678,2372,"ZIRBITZKOGEL"
11165,47.2,14.75,682,"ZELTWEG"
11170,47.8544,15.0675,611.8,"LUNZ"
11171,47.7892,15.3022,865.4,"MARIAZELL/ST SEBASTIAN"
11173,47.4442,15.6439,1037.2,"FISCHBACH"
11174,47.3361,15.0017,572,"ST. MICHAEL/LEOBEN"
11175,47.4058,15.2497,483.7,"BRUCK/MUR"
11176,47.4667,15.3333,527,"KAPFENBERG-FLUGFELD"
11180,47.7175,15.7786,1557.7,"RAX/SEILBAHN-BERGSTATION"
11182,47.8322,16.2314,285,"WIENER NEUSTADT"
11185,47.5111,16.0333,995.5,"MOENICHKIRCHEN"
11190,47.8547,16.5367,200,"EISENSTADT"
11192,47.2075,16.3356,267.1,"KLEINZICKEN"
11193,47.3381,16.2247,340,"BAD TATZMANNSDORF"
11194,47.9508,16.8417,149,"NEUSIEDL"
11201,46.7464,12.4236,1088,"SILLIAN"
11204,46.8256,12.8064,668,"LIENZ"
11206,46.9581,12.9025,1079,"DOELLACH"
11212,46.6036,13.6733,2160,"VILLACHER ALPE"
11213,46.6181,13.8739,494.5,"VILLACH"
11214,46.9386,14.9178,1035,"PREITENEGG"
11215,46.8081,13.5731,719,"MILLSTATT"
11220,47.0697,14.4247,871,"NEUMARKT"
11221,47.0697,15.0875,462,"KOEFLACH"
11225,46.8494,14.1908,716,"WEITENSFELD"
11227,46.7219,14.0969,546.4,"FELDKIRCHEN"
11228,46.9589,14.4058,644,"FRIESACH"
11229,46.7642,14.8281,408,"ST. ANDRAE I.L."
11231,46.6483,14.3183,476,"KLAGENFURT-FLUGHAFEN"
11232,46.5589,14.7667,530.9,"FEISTRITZ OB BLEIBURG"
11234,46.4925,14.5917,620,"BAD EISENKAPPEL"
11237,46.7392,14.3856,460.8,"ST.VEIT/GLAN"
11238,47.0461,15.4103,355.5,"GRAZ/STRASSGANG"
11240,46.9883,15.4417,363,"GRAZ-THALERHOF-FLUGHAFEN"
11241,47.1986,15.4664,1438.7,"SCHOECKL"
11242,47.1822,15.4908,730,"ST. RADEGUND"
11243,47.2183,15.6344,465.6,"WEIZ"
11244,46.8722,15.9036,271.4,"BAD GLEICHENBERG"
11245,46.8667,15.9,326,"BAD GLEICHENBERG"
11248,46.6858,15.9794,216,"BAD RADKERSBURG"
11252,47.0028,12.4558,1192.9,"VIRGEN"
11255,46.6775,12.9983,711,"KOETSCHACH-MAUTHEN"
11260,46.9914,13.1656,1189,"MALLNITZ-BAD"
11261,46.9289,13.2233,811.2,"OBERVELLACH"
11263,46.7186,13.2864,954,"WEISSENSEE/GATSCHACH"
11265,46.6028,13.68,2157,"VILLACHER ALPE- AUTOM."
11270,46.7419,13.0828,627.2,"DELLACH IM DRAUTAL"
11272,46.7906,13.4872,543.5,"SPITTAL/DRAU"
11275,46.7281,13.8525,869,"ARRIACH"
11278,46.6308,14.1653,453.4,"POERTSCHACH"
11280,47.1114,14.1769,814.1,"MURAU"
11285,46.8219,15.2281,355,"DEUTSCHLANDSBERG"
11290,47.0797,15.4478,378,"GRAZ UNIVERSITAET"
11292,47.0736,15.5944,529.3,"LASSNITZHOEHE"
11295,46.7833,15.55,272,"LEIBNITZ"
11296,46.7678,15.5539,268,"LEIBNITZ"
11298,46.9489,15.8797,320.1,"FELDBACH"
11301,47.4575,9.8486,715,"ALBERSCHWENDE"
11302,47.4325,9.7256,407,"DORNBIRN"
11304,47.1031,9.7383,1032.3,"BRAND"
11305,47.0667,9.8667,1004,"LATSCHAU/TSCHAGGUNS"
11306,47.25,10.0833,1260,"SCHROECKEN"
11307,47.1317,10.1233,1216.4,"LANGEN/ARLBERG"
11308,47.2558,10.1861,1470.3,"WARTH"
11310,46.9819,10.3172,2319,"ISCHGL/IDALPE"
11312,46.9678,10.1856,1576.7,"GALTUER"
11314,47.4944,10.7153,843.3,"REUTTE"
11315,47.2575,10.3386,1140,"HOLZGAU"
11316,46.9269,10.8792,2843,"PITZTALER GLETSCHER"
11318,46.9128,10.8628,3440,"BRUNNENKOGEL/OETZTALER ALPEN"
11320,47.2667,11.3833,579,"INNSBRUCK/UNIVERSITAET"
11322,47.1667,11.85,647,"MAYRHOFEN"
11325,47.39,11.7553,539,"JENBACH"
11328,47.5322,11.7083,908,"ACHENKIRCH"
11330,47.1667,11.85,633,"MAYRHOFEN"
11331,46.6483,14.3183,452,"KLAGENFURT-FLUGHAFEN (AUTOMAT)"
11332,48.5708,16.61,195,"MISTELBACH"
11336,47.4472,12.3942,748.4,"KITZBUEHEL"
11337,47.5972,12.6453,1627,"LOFERER ALM"
11339,47.4703,12.6211,959.9,"HOCHFILZEN"
11340,47.3297,12.7367,1953,"SCHMITTENHOEHE"
11343,47.0544,12.9581,3111,"SONNBLICK - AUTOM."
11345,47.3469,13.1553,750,"ST. VEIT IM PONGAU"
11346,47.2236,12.9925,942.1,"RAURIS"
11348,47.1531,13.7458,1151,"MARIAPFARR"
11349,47.0606,13.6156,1635,"KATSCHBERG"
11350,47.7906,13.0533,418.4,"SALZBURG/FREISAAL"
11351,47.425,13.6344,1209,"RAMSAU/DACHSTEIN"
11352,47.9919,13.4239,571,"FRANKENMARKT"
11354,47.6425,13.6181,503.1,"BAD GOISERN"
11355,47.7203,14.3261,597.5,"WINDISCHGARSTEN"
11356,47.6114,13.7822,664,"BAD AUSSEE"
11357,47.7372,13.4506,537,"ST. WOLFGANG"
11358,47.5533,13.9347,801.7,"BAD MITTERNDORF"
11359,47.4467,13.9042,768,"GROEBMING"
11360,47.5,14.1,707,"IRDNING/GUMPENSTEIN"
11362,47.4214,14.7597,746.6,"KALWANG"
11365,47.2011,14.7592,684,"ZELTWEG/AUTOM. STAT."
11367,48.3911,15.0028,969.1,"BAERNKOPF"
11368,47.9578,14.7844,374.1,"WAIDHOFEN/YBBS"
11370,47.4458,15.2983,505,"KAPFENBERG"
11372,47.1106,13.1333,1093.8,"BAD GASTEIN"
11375,47.5458,15.2408,775.3,"AFLENZ"
11378,47.8714,15.8761,710.4,"GUTENSTEIN-MARIAHILFBERG"
11380,47.6997,15.8369,487.7,"REICHENAU/RAX"
11382,47.7903,15.9069,586,"PUCHBERG"
11383,47.6331,15.8283,993,"SEMMERING"
11384,47.6233,15.8333,1320.1,"HIRSCHENKOGEL"
11385,47.8222,16.035,937.3,"HOHE WAND/HOCHKOGELHAUS"
11386,47.5281,16.1867,541.9,"KRUMBACH I. D. BUCKLIGEN WELT"
11387,47.9764,16.505,185,"SEIBERSDORF"
11389,48.1997,15.6311,269.6,"ST.POELTEN LANDHAUS"
11390,47.2806,15.9786,336.5,"HARTBERG"
11393,47.4653,16.6456,200,"LUTZMANNSBURG"
11395,47.7725,17.0333,121.2,"ANDAU"
11406,50.0736,12.4033,490,"CHEB"
11414,50.2139,12.9119,607,"KARLOVY VARY"
11423,49.6694,12.6778,747.36,"PRIMDA"
11438,50.3767,13.3281,326.2,"TUSIMICE"
11450,49.7647,13.3789,371.5,"PLZEN-MIKULKA"
11457,49.0683,13.615,1122.2,"CHURANOV"
11464,50.5547,13.9322,838,"MILESOVKA"
